lat,lon,adpSum,onWeb,Flags,fulladdr,DETLOC,Name,Address,City,County,State,Zip,Circuit,AOR,Docket,Type,Type.Detailed,ICE.Funded,Population.Count,Date.of.Last.Use,Date.of.First.Use,FY18.Max.Population.Count,FY18.ADP,FY17.ADP,FY16.ADP,FY15.ADP,FY14.ADP,FY18.Facility.Bookins,FY17.Facility.Bookins,FY16.Facility.Bookins,FY15.Facility.Bookins,FY18.Non.Criminal,FY18.Criminal,FY17.Non.Criminal,FY17.Criminal,FY16.Non.Criminal,FY16.Criminal,FY15.Non.Criminal,FY15.Criminal,ICE.Threat.Level.1,ICE.Threat.Level.2,ICE.Threat.Level.3,No.ICE.Threat.Level,Facility.Operator,FY17.Calendar.Days.in.Use,FY17...of.Days.in.Use,FY17.Total.Mandays,FY17.Max.Pop.Count,geocodelat,geocodelon
28.895,-99.1212,8391,28.895,,566 VETERANS DRIVE PEARSALL TX 78061,STCDFTX,SOUTH TEXAS DETENTION COMPLEX,566 VETERANS DRIVE,PEARSALL,FRIO,TX,78061,5,SNA,STC,CDF,CDF,Yes,1735,04.11.2017,27.06.2005,1811,1754,1640,1728,1547,1722,2056,13065,15317,15513,1182,573,1120,520,1115,613,944,603,145,112,311,1187,GEO,372,1.02,598554,1854,28.896498,-99.116863
32.0366,-84.7718,8004,32.0366,,146 CCA ROAD LUMPKIN GA 31815,STWRTGA,STEWART DETENTION CENTER,146 CCA ROAD,LUMPKIN,STEWART,GA,31815,11,ATL,ATL,IGSA,DIGSA,Yes,1917,04.11.2017,01.09.2000,1947,1802,1840,1369,1374,1619,2379,11022,7583,9455,666,1136,861,979,585,785,363,1011,423,344,365,671,CCA,372,1.02,671515,1992,32.037982,-84.772465
34.5592,-117.441,7265,34.5592,,10250 RANCHO ROAD ADELANTO CA 92301,ADLNTCA,ADELANTO ICE PROCESSING CENTER,10250 RANCHO ROAD,ADELANTO,SAN BERNARDINO,CA,92301,9,LOS,LOS,IGSA,DIGSA,Yes,1747,04.11.2017,29.08.2011,1767,1691,1713,1472,1180,1209,1870,8623,10531,8103,721,970,874,840,626,846,237,942,595,206,164,726,GEO,372,1.02,625414,1918,34.557721,-117.442524
32.8177,-111.52,7096,32.8177,,1705 EAST HANNA RD. ELOY AZ 85131,EAZ,ELOY FEDERAL CONTRACT FACILITY,1705 EAST HANNA RD.,ELOY,PINAL,AZ,85131,9,PHO,EAZ,IGSA,DIGSA,Yes,1436,04.11.2017,10.03.1991,1444,1401,1378,1433,1401,1483,1310,6873,6254,7079,780,621,759,619,742,691,711,690,230,154,232,785,CCA,372,1.02,502952,1489,32.821231,-111.549772
47.2491,-122.421,6757,47.2491,,1623 E. J STREET TACOMA WA 98421,CSCNWWA,NORTHWEST DETENTION CENTER,1623 E. J STREET,TACOMA,PIERCE,WA,98421,9,SEA,TAC,CDF,CDF,Yes,1421,04.11.2017,07.06.2001,1438,1391,1423,1411,1132,1400,1556,5961,6019,5207,690,701,655,768,682,729,452,680,358,166,174,693,GEO,372,1.02,519386,1563,47.250214,-122.422746
31.7083,-92.1524,5467,31.7083,,830 PINEHILL ROAD JENA LA 71342,JENADLA,JENA/LASALLE DETENTION FACILITY,830 PINEHILL ROAD,JENA,LA SALLE,LA,71342,5,NOL,OAK,IGSA,DIGSA,Yes,1100,04.11.2017,22.10.2007,1214,1165,1117,1105,1047,1033,1730,17421,12149,12785,416,749,398,719,457,647,406,641,344,167,237,418,GEO,372,1.02,407819,1277,31.70821,-92.150612
26.155,-97.3383,5201,26.155,,27991 BUENA VISTA BOULEVARD LOS FRESNOS TX 78566,PIC,PORT ISABEL,27991 BUENA VISTA BOULEVARD,LOS FRESNOS,CAMERON,TX,78566,5,SNA,PIC,SPC,SPC,Yes,1160,04.11.2017,13.04.1985,1166,1094,1003,1104,1008,992,4926,49608,64263,67865,938,156,838,165,898,206,812,197,56,38,61,939,AHTNA (GUARD),369,1.01,366163,1244,26.151929,-97.350906
29.9497,-95.3122,4581,29.9497,,15850 EXPORT PLAZA DRIVE HOUSTON TX 77032,HOUICDF,HOUSTON CONTRACT DETENTION FACILITY,15850 EXPORT PLAZA DRIVE,HOUSTON,HARRIS,TX,77032,5,HOU,HOU,CDF,CDF,Yes,932,04.11.2017,21.07.1986,979,931,932,916,860,942,1784,14327,15021,16596,284,647,226,706,256,660,300,560,349,147,155,281,CCA,372,1.02,340063,1131,29.948868,-95.312927
28.6579,-99.2004,4311,28.6579,,1925 WEST HIGHWAY 85 DILLEY TX 78017,STFRCTX,SOUTH TEXAS FAMILY RESIDENTIAL CENTER,1925 WEST HIGHWAY 85,DILLEY,FRIO,TX,78017,5,SNA,LRD,IGSA,FAMILY,Yes,1593,04.11.2017,19.12.2014,1715,1553,994,1015,749,0,1443,25627,28882,8757,1550,3,993,2,1013,2,745,4,0,0,3,1550,CCA,372,1.02,362964,2046,28.663086,-99.199027
32.0768,-106.255,4163,32.0768,,26 MCGREGOR RANGE ROAD CHAPARRAL NM 88081,OTRPCNM,OTERO COUNTY PROCESSING CENTER,26 MCGREGOR RANGE ROAD,CHAPARRAL,DONA ANA,NM,88081,10,ELP,OOP,IGSA,DIGSA,Yes,958,04.11.2017,08.12.2001,988,913,735,844,826,845,997,16156,18949,16941,454,459,355,380,181,664,210,615,123,113,221,456,M&TC,372,1.02,268160,994,32.016469,-106.41112
32.575,-116.915,4120,32.575,,7488 CALZADA DE LA FUENTE SAN DIEGO CA 92154,CCASDCA,OTAY MESA DETENTION CENTER (SAN DIEGO CDF),7488 CALZADA DE LA FUENTE,SAN DIEGO,SAN DIEGO,CA,92154,9,SND,SND,CDF,USMS CDF,Yes,925,04.11.2017,05.09.1998,995,958,1028,835,635,664,1838,9569,13530,9212,553,405,554,473,441,395,337,298,218,89,95,556,CCA,372,1.02,375058,1185,32.557027,-116.962479
30.3358,-95.4481,4080,30.3358,,500 HILBIG RD. CONROE TX 77301,MONTGTX,JOE CORLEY DETENTION FACILITY,500 HILBIG RD.,CONROE,MONTGOMERY,TX,77301,5,HOU,HOU,IGSA,IGSA,Yes,767,04.11.2017,16.08.2008,795,724,829,894,675,958,831,6824,7346,5315,289,434,485,344,577,317,207,467,151,113,181,279,GEO,372,1.02,302614,1014,30.336849,-95.449655
31.7939,-106.369,3751,31.7939,,8915 MONTANA AVE. EL PASO TX 79925,EPC,EL PASO SERVICE PROCESSING CENTER,8915 MONTANA AVE.,EL PASO,EL PASO,TX,79925,5,ELP,EPC,SPC,SPC,Yes,770,04.11.2017,04.04.1984,848,742,767,819,706,717,1924,16669,16623,14772,454,288,461,306,422,397,379,327,60,44,182,456,GPS-ASSET,372,1.02,279980,917,31.793411,-106.369373
39.9865,-76.6608,3426,39.9865,,3400 CONCORD ROAD YORK PA 17402,YORCOPA,YORK COUNTY PRISON,3400 CONCORD ROAD,YORK,YORK,PA,17402,3,PHI,YRK,IGSA,IGSA,Yes,691,04.11.2017,27.01.1988,737,695,690,671,640,730,961,6105,4965,5293,332,363,348,342,291,380,251,389,208,58,96,333,COUNTY (SHERIFF),372,1.02,251892,854,39.987259,-76.663787
37.3239,-78.437,3091,37.3239,,508 WATERWORKS ROAD FARMVILLE VA 23901,FRMVLVA,IMMIGRATION CENTERS OF AMERICA FARMVILLE,508 WATERWORKS ROAD,FARMVILLE,PRINCE EDWARD,VA,23901,4,WAS,WAS,IGSA,DIGSA,Yes,690,04.11.2017,05.08.2010,765,719,713,579,549,531,1002,4357,3067,3379,241,478,203,509,71,508,91,458,215,126,128,250,ICA,372,1.02,260133,820,37.323304,-78.436819
26.2772,-80.151,2889,26.2772,,3900 NORTH POWERLINE ROAD POMPANO BEACH FL 33073,WCCPBFL,BROWARD TRANSITIONAL CENTER,3900 NORTH POWERLINE ROAD,POMPANO BEACH,BROWARD,FL,33073,11,MIA,KRO,CDF,CDF,Yes,645,04.11.2017,26.08.2002,672,640,628,618,405,598,1324,5141,3704,2456,551,89,544,84,562,56,355,50,1,18,69,552,GEO,361,0.99,229121,698,26.275748,-80.151987
40.7212,-74.1272,2842,40.7212,,354 DOREMUS AVENUE NEWARK NJ 7105,ESSEXNJ,ESSEX COUNTY CORRECTIONAL FACILITY,354 DOREMUS AVENUE,NEWARK,ESSEX,NJ,7105,3,NEW,NEW,IGSA,IGSA,Yes,701,04.11.2017,13.03.1990,715,691,652,539,410,550,720,2584,1872,1654,279,412,277,375,136,403,62,349,293,57,61,279,COUNTY (CORRECTIONS),372,1.02,238063,787,40.721185,-74.125449
31.5781,-83.253,2744,31.5781,,132 COTTON DRIVE OCILLA GA 31772,IRWINGA,IRWIN COUNTY DETENTION CENTER,132 COTTON DRIVE,OCILLA,IRWIN,GA,31772,11,ATL,ATL,USMS IGA,USMS IGA,Yes,674,04.11.2017,26.09.2010,813,721,714,546,345,418,1173,6788,6444,4800,301,420,288,426,122,424,94,251,194,85,130,311,LASALLE CORRECTIONS,372,1.02,260684,903,31.583812,-83.258963
32.6908,-115.398,2696,32.6908,,1572 GATEWAY CALEXICO CA 92231,IRADFCA,IMPERIAL REGIONAL DETENTION FACILITY,1572 GATEWAY,CALEXICO,IMPERIAL,CA,92231,9,SND,SND,IGSA,DIGSA,Yes,671,04.11.2017,22.09.2014,712,684,662,681,665,4,1052,5524,3788,2767,602,82,574,88,532,149,493,173,60,8,14,602,M&TC,372,1.02,241613,720,33.787447,-116.383098
40.7279,-74.1084,2694,40.7279,,30-35 HACKENSACK AVE. KEARNY NJ 7032,HUDSONJ,HUDSON COUNTY CORRECTIONAL CENTER,30-35 HACKENSACK AVE.,KEARNY,HUDSON,NJ,7032,3,NYC,VRK,IGSA,IGSA,Yes,610,04.11.2017,14.08.1995,669,636,638,491,455,474,715,2617,1762,1496,184,453,211,428,98,393,34,420,238,109,106,184,COUNTY (CORRECTIONS),372,1.02,233040,935,40.896618,-74.038454
33.0371,-111.371,2683,33.0371,,1100 BOWLING ROAD FLORENCE AZ 85132,CCAFLAZ,"CCA, FLORENCE CORRECTIONAL CENTER",1100 BOWLING ROAD,FLORENCE,PINAL,AZ,85132,9,PHO,FLO,USMS IGA,USMS IGA,Yes,659,04.11.2017,04.11.1987,662,566,732,712,358,315,706,4866,6456,3511,294,272,466,266,486,225,169,189,105,54,111,297,CCA,372,1.02,267138,1135,33.036771,-111.370421
39.7606,-104.849,2653,39.7606,,3130 N. OAKLAND ST. AURORA CO 80010,DENICDF,DENVER CONTRACT DETENTION FACILITY,3130 N. OAKLAND ST.,AURORA,ARAPAHOE,CO,80010,10,DEN,DEN,CDF,CDF,Yes,646,04.11.2017,11.04.1987,683,644,720,477,395,417,746,5160,3574,3028,212,431,395,325,210,268,172,223,200,121,107,216,GEO,372,1.02,262842,926,39.762115,-104.850649
43.0202,-78.2026,2593,43.0202,,4250 FEDERAL DRIVE BATAVIA NY 14020,BTV,BUFFALO (BATAVIA) SERVICE PROCESSING CENTER,4250 FEDERAL DRIVE,BATAVIA,GENESEE,NY,14020,2,BUF,BTV,SPC,SPC,Yes,562,04.11.2017,23.05.1995,598,570,566,540,424,493,581,2647,2551,2414,255,316,268,298,266,274,162,262,223,56,37,255,AGS,372,1.02,206589,635,43.021003,-78.199196
30.5653,-97.4198,2474,30.5653,,1001 WELCH STREET TAYLOR TX 76574,CCAHUTX,HUTTO CCA,1001 WELCH STREET,TAYLOR,WILLIAMSON,TX,76574,5,SNA,DHD,IGSA,FAMILY,Yes,509,04.11.2017,13.04.1998,512,492,493,493,496,500,580,3554,4209,3592,483,9,454,39,429,64,413,83,0,2,7,483,CCA,372,1.02,179835,513,30.566391,-97.41949
30.6977,-95.0061,2458,30.6977,,3400 FM 350 SOUTH LIVINGSTON TX 77351,POLKCTX,POLK COUNTY ADULT DETENTION FACILITY,3400 FM 350 SOUTH,LIVINGSTON,POLK,TX,77351,5,HOU,HOU,IGSA,IGSA,Yes,560,04.11.2017,16.05.2006,590,431,581,563,289,594,623,4587,5235,3215,230,201,453,128,436,128,130,159,61,46,95,230,M&TC,372,1.02,212070,1027,30.80619,-94.975545
27.3777,-99.4901,2404,27.3777,,1001 SAN RIO BOULEVARD LAREDO TX 78046,RGRNDTX,RIO GRANDE DETENTION CENTER,1001 SAN RIO BOULEVARD,LAREDO,WEBB,TX,78046,5,SNA,LRD,USMS IGA,USMS IGA,Yes,680,04.11.2017,01.01.2014,680,574,524,476,444,386,1087,11226,14781,13233,523,52,450,74,375,101,344,101,5,18,29,523,GEO,372,1.02,191158,676,27.380057,-99.486369
33.7818,-117.888,2113,33.7818,,501 THE CITY DRIVE SOUTH ORANGE CA 92868,TLACYCA,THEO LACY FACILITY,501 THE CITY DRIVE SOUTH,ORANGE,ORANGE,CA,92868,9,LOS,LOS,IGSA,IGSA,Yes,537,04.11.2017,09.08.2010,570,542,491,448,271,361,2382,7668,6036,5127,141,401,130,362,123,325,85,186,250,91,60,141,COUNTY (SHERIFF),372,1.02,179353,549,33.782302,-117.888931
25.7543,-80.4891,2080,25.7543,,18201 SOUTHWEST 12TH STREET MIAMI FL 33194,KRO,KROME NORTH SERVICE PROCESSING CENTER,18201 SOUTHWEST 12TH STREET,MIAMI,MIAMI-DADE,FL,33194,11,MIA,KRO,SPC,SPC,Yes,0,10.09.2017,03.11.1983,0,0,551,558,452,519,1504,11063,7540,6810,0,0,250,301,194,364,85,367,0,0,0,0,AGS,345,0.95,200940,1022,25.75506,-80.437893
28.8858,-97.9112,1978,28.8858,,FM 1144 AT US HIGHWAY 181 KARNES CITY TX 78118,KCCDCTX,KARNES COUNTY RESIDENTIAL CENTER,FM 1144 AT US HIGHWAY 181,KARNES CITY,KARNES,TX,78118,5,SNA,KCD,IGSA,FAMILY,Yes,574,04.11.2017,30.05.2014,660,550,416,512,416,84,455,12269,15247,3632,550,0,415,1,510,2,414,2,0,0,0,550,GEO,372,1.02,151869,675,28.885953,-97.910733
33.0637,-111.379,1909,33.0637,,3250 NORTH PINAL PARKWAY FLORENCE AZ 85132,FLO,FLORENCE SERVICE PROCESSING CENTER,3250 NORTH PINAL PARKWAY,FLORENCE,PINAL,AZ,85132,9,PHO,FLO,SPC,SPC,Yes,369,04.11.2017,31.08.1984,471,396,376,387,375,375,601,11939,12959,9846,292,104,282,94,321,65,271,104,8,6,89,292,ASSET (GUARD),372,1.02,137179,477,33.064974,-111.378531
30.7886,-92.4231,1902,30.7886,,1133 HAMPTON DUPRE ROAD PINE PRAIRIE LA 70576,PINEPLA,PINE PRAIRIE CORRECTIONAL CENTER,1133 HAMPTON DUPRE ROAD,PINE PRAIRIE,EVANGELINE,LA,70576,5,NOL,OAK,IGSA,DIGSA,Yes,691,04.11.2017,28.02.2000,842,716,707,479,0,0,1024,6983,3740,0,365,352,411,296,326,153,0,0,150,82,119,366,GEO,372,1.02,257967,940,30.788146,-92.41285
31.1666,-105.352,1703,31.1666,,401 S. VAQUERO AVE. SIERRA BLANCA TX 79851,WTXDFTX,WEST TEXAS DETENTION FACILITY,401 S. VAQUERO AVE.,SIERRA BLANCA,HUDSPETH,TX,79851,5,ELP,EPC,USMS IGA,USMS IGA,Yes,485,04.11.2017,18.07.2007,579,490,338,452,202,221,1668,12516,21395,16309,278,212,204,134,225,226,108,94,24,33,156,278,LASALLE CORRECTIONS,371,1.02,123402,827,31.183301,-105.35269
33.1714,-99.7201,1575,33.1714,,118 COUNTY ROAD 206 HASKELL TX 79521,HASKLTX,ROLLING PLAINS DETENTION CENTER,118 COUNTY ROAD 206,HASKELL,HASKELL,TX,79521,5,DAL,DAL,IGSA,IGSA,Yes,0,23.03.2017,18.06.2000,0,0,173,490,440,472,34,2156,6185,6120,0,0,23,150,122,368,157,284,0,0,0,0,LASALLE CORRECTIONS,171,0.47,62971,520,33.178452,-99.720047
27.5289,-99.4479,1535,27.5289,,4702 EAST SAUNDERS STREET LAREDO TX 78041,LRDICDF,LAREDO PROCESSING CENTER,4702 EAST SAUNDERS STREET,LAREDO,WEBB,TX,78041,5,SNA,LRD,USMS IGA,USMS IGA,Yes,368,04.11.2017,20.06.1983,386,332,311,301,279,312,911,8582,9971,9118,300,32,275,37,261,40,233,46,10,8,13,300,CCA,372,1.02,113526,400,27.528423,-99.448416
NA,NA,1487,0,,Redacted Redacted Redacted Redacted,Redacted,Redacted,Redacted,Redacted,Redacted,Redacted,Redacted,11,MIA,,ORR,ORR,No,366,04.11.2017,29.12.2015,366,366,920,201,0,0,346,5633,2307,0,366,0,920,0,201,0,0,0,0,0,0,366,,372,1.02,335930,1972,NA,NA
34.0166,-86.0124,1471,34.0166,,827 FORREST AVENUE GADSDEN AL 35901,ETOWAAL,ETOWAH COUNTY JAIL (ALABAMA),827 FORREST AVENUE,GADSDEN,ETOWAH,AL,35901,11,NOL,ATL,USMS IGA,USMS IGA,Yes,297,04.11.2017,02.03.1996,325,309,301,278,281,302,422,1212,823,856,87,222,119,182,119,159,61,220,155,39,28,88,COUNTY (SHERIFF),372,1.02,109899,342,34.015943,-86.012259
33.6625,-117.703,1439,33.6625,,13502 MUSICK ROAD IRVINE CA 92618,MUSIKCA,JAMES A. MUSICK FACILITY,13502 MUSICK ROAD,IRVINE,ORANGE,CA,92618,9,LOS,LOS,IGSA,IGSA,Yes,284,04.11.2017,09.08.2010,328,310,297,290,254,288,1316,3981,3839,3791,177,134,161,136,138,152,122,132,49,54,31,177,COUNTY (SHERIFF),372,1.02,108483,340,33.642102,-117.769133
40.6661,-74.1897,1415,40.6661,,625 EVANS STREET ELIZABETH NJ 7201,ELZICDF,ELIZABETH CONTRACT DETENTION FACILITY,625 EVANS STREET,ELIZABETH,UNION,NJ,7201,3,NEW,NEW,CDF,CDF,Yes,310,04.11.2017,22.01.1990,313,307,292,295,248,273,330,2033,1757,2081,166,141,166,126,168,126,150,97,49,31,61,166,CCA,372,1.02,106454,312,36.301353,-76.219129
30.485653,-92.595756,1310,0,,3843 STAGG AVENUE BASILE LA 70515,BASILLA,SOUTH LOUISIANA DETENTION CENTER,3843 STAGG AVENUE,BASILE,EVANGELINE,LA,70515,5,NOL,OAK,IGSA,IGSA,Yes,0,05.01.2016,31.01.1997,0,0,0,169,578,563,0,0,1051,4409,0,0,0,0,119,50,391,187,0,0,0,0,GEO,0,0,0,0,30.485653,-92.595756
35.38,-119.006,1286,35.38,,425 GOLDEN STATE AVE BAKERSFIELD CA 93301,CACFMES,MESA VERDE DETENTION FACILITY,425 GOLDEN STATE AVE,BAKERSFIELD,KERN,CA,93301,9,SFR,BKI,IGSA,DIGSA,Yes,378,04.11.2017,20.03.2015,404,385,374,368,159,0,438,3840,2173,1260,120,265,100,274,111,257,67,92,159,52,48,127,GEO,372,1.02,136581,421,35.380494,-119.005905
36.031,-114.979,1187,36.031,,18 E BASIC ROAD HENDERSON NV 89015,HENDENV,HENDERSON DETENTION CENTER,18 E BASIC ROAD,HENDERSON,CLARK,NV,89015,9,SLC,LVG,USMS IGA,USMS IGA,Yes,233,04.11.2017,04.02.2011,261,245,245,240,223,234,283,2334,2891,2407,45,200,38,208,19,221,6,217,72,65,63,45,CITY,372,1.02,89554,290,36.030087,-114.9796
32.372,-97.3891,1181,32.372,,1800 RIDGEMAR DRIVE CLEBURNE TX 76031,JOHNSTX,JOHNSON COUNTY CORRECTIONS CENTER,1800 RIDGEMAR DRIVE,CLEBURNE,JOHNSON,TX,76031,5,DAL,DAL,IGSA,IGSA,Yes,278,04.11.2017,01.05.1998,287,271,262,216,199,233,396,4458,2362,3310,53,218,75,187,74,143,58,141,86,45,87,53,LASALLE CORRECTIONS,372,1.02,95657,322,32.372572,-97.388975
26.8386,-81.1247,1141,26.8386,,1297 EAST SR 78 MOORE HAVEN FL 33471,GLADEFL,GLADES COUNTY DETENTION CENTER,1297 EAST SR 78,MOORE HAVEN,GLADES,FL,33471,11,MIA,KRO,IGSA,IGSA,Yes,384,04.11.2017,16.07.2007,456,422,305,130,92,192,922,2765,1016,686,79,343,49,256,5,125,6,86,211,81,48,83,COUNTY (SHERIFF),365,1,111464,449,26.9998,-81.069327
30.2957,-82.1222,1134,30.2957,,1 SHERIFF OFFICE DRIVE MACCLENNY FL 32063,BAKERFL,BAKER COUNTY SHERIFF'S OFFICE,1 SHERIFF OFFICE DRIVE,MACCLENNY,BAKER,FL,32063,11,MIA,KRO,IGSA,IGSA,Yes,288,04.11.2017,07.06.2000,292,278,272,188,168,228,471,1949,1304,990,66,213,48,224,5,183,7,161,119,53,41,66,COUNTY,372,1.02,99327,297,30.28218,-82.12206
NA,NA,1131,0,,Redacted Redacted Redacted Redacted,Redacted,Redacted,Redacted,Redacted,Redacted,Redacted,Redacted,5,SNA,HLG,ORR,ORR,No,219,04.11.2017,15.07.2011,229,197,227,310,136,261,172,2366,3140,1616,197,0,227,0,309,0,136,0,0,0,0,197,,372,1.02,82984,517,NA,NA
42.3405,-88.4409,1049,42.3405,,2200 NORTH SEMINARY AVENUE WOODSTOCK IL 60098,MCHENIL,MCHENRY COUNTY CORRECTIONAL FACILITY,2200 NORTH SEMINARY AVENUE,WOODSTOCK,MCHENRY,IL,60098,7,CHI,CHI,USMS IGA,USMS IGA,Yes,256,04.11.2017,24.12.1987,290,255,235,207,167,185,866,4537,4812,3396,67,188,88,148,64,143,18,149,96,50,42,67,COUNTY (SHERIFF),372,1.02,85924,296,42.339714,-88.443208
40.8733,-74.0401,981,40.8733,,160 SOUTH RIVER STREET HACKENSACK NJ 7601,BERGENJ,BERGEN COUNTY JAIL,160 SOUTH RIVER STREET,HACKENSACK,BERGEN,NJ,7601,3,NYC,VRK,USMS IGA,USMS IGA,Yes,378,04.11.2017,13.06.1989,380,336,225,147,106,167,367,964,540,384,110,225,76,149,39,109,3,103,91,45,90,110,COUNTY (SHERIFF),372,1.02,82301,324,40.900205,-74.036051
37.9944,-122.354,963,37.9944,,5555 GIANT HIGHWAY RICHMOND CA 94806,CONWECA,CONTRA COSTA COUNTY JAIL WEST,5555 GIANT HIGHWAY,RICHMOND,CONTRA COSTA,CA,94806,9,SFR,SFR,USMS IGA,USMS IGA,Yes,214,04.11.2017,05.04.2010,231,211,203,196,120,233,263,1321,1586,975,53,158,36,167,35,161,27,92,56,60,41,55,COUNTY (SHERIFF),372,1.02,74153,274,37.993542,-122.353032
39.1411,-121.587,928,39.1411,,215 5TH STREET MARYSVILLE CA 95901,YUBAJCA,YUBA COUNTY JAIL,215 5TH STREET,MARYSVILLE,YUBA,CA,95901,9,SFR,SFR,IGSA,IGSA,Yes,190,04.11.2017,03.01.1996,191,180,168,189,192,199,292,1635,1105,1484,31,149,19,148,9,180,12,180,84,40,25,31,COUNTY (SHERIFF),372,1.02,61261,210,39.140602,-121.586728
32.4195,-97.1969,921,32.4195,,1209 SUNFLOWER LN ALVARADO TX 76009,PRLDCTX,PRAIRIELAND DETENTION FACILITY,1209 SUNFLOWER LN,ALVARADO,JOHNSON,TX,76009,5,DAL,PRL,IGSA,DIGSA,Yes,600,04.11.2017,17.01.2017,655,595,326,0,0,0,729,6111,0,0,161,434,75,251,0,0,0,0,182,100,152,162,LASALLE CORRECTIONS,264,0.72,118999,650,32.420424,-97.196841
42.3344,-71.0677,916,42.3344,,20 BRADSTON STREET BOSTON MA 2118,SUFFOMA,SUFFOLK COUNTY HOUSE OF CORRECTIONS,20 BRADSTON STREET,BOSTON,SUFFOLK,MA,2118,1,BOS,BOS,IGSA,IGSA,Yes,210,04.11.2017,05.11.1996,218,196,186,192,153,189,282,2055,1685,1457,94,102,79,107,66,126,32,121,59,19,24,94,COUNTY (SHERIFF),372,1.02,67870,224,42.333897,-71.069986
43.4076,-88.7041,916,43.4076,,215 WEST CENTRAL STREET JUNEAU WI 53039,DODGEWI,DODGE COUNTY JAIL,215 WEST CENTRAL STREET,JUNEAU,DODGE,WI,53039,7,CHI,CHI,USMS IGA,USMS IGA,Yes,177,04.11.2017,02.09.1986,196,173,191,199,160,193,478,2595,2976,2276,36,138,32,158,42,157,12,148,70,43,24,36,COUNTY (SHERIFF),372,1.02,69536,222,43.333208,-88.280921
31.323747,-92.53531,865,0,"Addresses don't add up. Geogroup shows 96 George Thompson Drive, Alexandria, LA 71303.",1511 ARNOLD DRIVE ALEXANDRIA LA 71303,JENATLA,ALEXANDRIA STAGING FACILITY,1511 ARNOLD DRIVE,ALEXANDRIA,COUNTY,LA,71303,5,NOL,OAK,Other,STAGING,Yes,286,04.11.2017,10.11.2014,367,252,246,200,167,0,641,31220,21268,19015,86,166,96,149,49,151,37,130,76,42,47,86,GEO,372,1.02,89688,394,31.323747,-92.53531
30.879161,-81.978064,843,0,,3423 HIGHWAY 252 EAST FOLKSTON GA 31537,JAMESGA,FOLKSTON ICE PROCESSING CENTER (D. RAY JAMES),3423 HIGHWAY 252 EAST,FOLKSTON,CHARLTON,GA,31537,11,ATL,JAC,IGSA,DIGSA,Yes,555,04.11.2017,30.01.2017,629,588,255,0,0,0,1400,3126,0,0,236,352,202,53,0,0,0,0,246,57,49,236,GEO,245,0.67,92991,682,30.879161,-81.978064
27.739633,-97.760526,826,0,,4909 FM (FARM TO MARKET) 2826 ROBSTOWN TX 78380,CBENDTX,COASTAL BEND DETENTION FACILITY,4909 FM (FARM TO MARKET) 2826,ROBSTOWN,NUECES,TX,78380,5,HOU,PIC,USMS IGA,USMS IGA,Yes,3,04.11.2017,09.06.2012,4,1,172,0,41,612,191,862,0,930,1,0,167,5,0,0,38,2,0,0,0,1,GEO,219,0.6,62835,400,27.739633,-97.760526
38.1699,-75.376,818,38.1699,,5022 JOYNER ROAD SNOW HILL MD 21863,WORCEMD,WORCESTER COUNTY JAIL,5022 JOYNER ROAD,SNOW HILL,WORCESTER,MD,21863,4,BAL,WCD,IGSA,IGSA,Yes,170,04.11.2017,04.01.2000,180,169,174,165,142,168,176,877,805,648,39,130,31,143,28,137,15,127,72,25,33,39,COUNTY (SHERIFF),372,1.02,63635,190,38.217824,-75.326618
41.3886,-75.0719,800,41.3886,,175 PIKE COUNTY BOULEVARD LORDS VALLEY PA 18428,PIKCOPA,PIKE COUNTY CORRECTIONAL FACILITY,175 PIKE COUNTY BOULEVARD,LORDS VALLEY,PIKE,PA,18428,3,PHI,PKE,IGSA,IGSA,Yes,163,04.11.2017,13.03.1996,192,179,178,169,114,160,253,768,819,720,27,152,39,139,31,138,20,94,102,31,17,29,COUNTY (SHERIFF),372,1.02,65148,216,41.392133,-75.073642
45.3047,-93.6206,787,45.3047,,13880 UNITED STATES HIGHWAY 10 ELK RIVER MN 55330,SHERBMN,SHERBURNE COUNTY JAIL,13880 UNITED STATES HIGHWAY 10,ELK RIVER,SHERBURNE,MN,55330,8,SPM,SPM,USMS IGA,USMS IGA,Yes,268,04.11.2017,01.04.1991,274,256,197,127,97,110,340,1473,876,905,69,187,48,149,34,93,11,85,87,42,58,69,COUNTY (SHERIFF),372,1.02,71733,276,45.306321,-93.618729
42.5943,-87.9119,786,42.5943,,4777 88TH AVENUE KENOSHA WI 53144,KENOSWI,KENOSHA COUNTY DETENTION CENTER,4777 88TH AVENUE,KENOSHA,KENOSHA,WI,53144,7,CHI,CHI,USMS IGA,USMS IGA,Yes,142,04.11.2017,08.01.1986,155,143,173,166,130,174,529,2621,2674,1784,52,91,52,121,41,126,11,119,49,23,17,53,COUNTY (SHERIFF),372,1.02,63235,211,42.592867,-87.914943
NA,NA,778,0,,Redacted Redacted Redacted Redacted,Redacted,Redacted,Redacted,Redacted,Redacted,Redacted,Redacted,9,PHO,PHO,ORR,ORR,No,231,04.11.2017,26.09.2014,232,211,220,314,33,0,233,2037,3678,364,211,0,219,0,314,0,33,0,0,0,0,211,,372,1.02,80179,433,NA,NA
NA,NA,771,0,,Redacted Redacted Redacted Redacted,Redacted,Redacted,Redacted,Redacted,Redacted,Redacted,Redacted,7,CHI,CHI,ORR,ORR,No,149,04.11.2017,17.07.2012,161,155,134,170,95,217,173,858,1189,616,155,0,134,0,170,0,95,0,0,0,0,155,,372,1.02,48765,281,NA,NA
38.3063,-121.422,768,38.3063,,12500 BRUCEVILLE ROAD ELK GROVE CA 95757,RIOCCCA,RIO COSUMNES CORR. CENTER,12500 BRUCEVILLE ROAD,ELK GROVE,SACRAMENTO,CA,95757,9,SFR,SAC,IGSA,IGSA,Yes,180,04.11.2017,12.07.2013,198,170,126,136,135,201,263,1154,1007,1426,23,148,9,117,5,132,7,129,93,28,27,23,COUNTY (SHERIFF),360,0.99,46004,207,38.304983,-121.42003
NA,NA,767,0,,Redacted Redacted Redacted Redacted,Redacted,Redacted,Redacted,Redacted,Redacted,Redacted,Redacted,5,SNA,SNA,ORR,ORR,No,102,04.11.2017,15.06.2007,120,106,123,126,155,257,133,857,1039,1089,100,7,119,4,124,2,154,2,2,1,4,100,ORR,372,1.02,44955,208,NA,NA
41.4049,-74.3595,756,41.4049,,110 WELLS FARM ROAD GOSHEN NY 10924,ORANGNY,ORANGE COUNTY JAIL,110 WELLS FARM ROAD,GOSHEN,ORANGE,NY,10924,2,NYC,VRK,IGSA,IGSA,Yes,176,04.11.2017,19.08.2008,183,172,169,172,129,114,209,589,604,566,38,134,46,123,32,140,11,118,44,32,58,38,COUNTY (CORRECTIONS),372,1.02,61821,196,41.404806,-74.357048
36.1573,-95.9993,746,36.1573,,300 NORTH DENVER AVENUE TULSA OK 74103,TULCOOK,TULSA COUNTY JAIL (DAVID L. MOSS JUSTICE CTR),300 NORTH DENVER AVENUE,TULSA,TULSA,OK,74103,10,DAL,OKC,IGSA,IGSA,Yes,182,04.11.2017,22.10.1990,206,188,169,132,122,135,264,2935,1775,1914,79,109,48,121,45,86,15,107,41,31,37,79,COUNTY (SHERIFF),372,1.02,61563,219,36.158006,-95.997731
42.3157,-85.1767,741,42.3157,,185 EAST MICHIGAN AVENUE BATTLE CREEK MI 49014,CALHOMI,CALHOUN COUNTY CORRECTIONAL CENTER,185 EAST MICHIGAN AVENUE,BATTLE CREEK,BRANCH,MI,49014,6,DET,DET,IGSA,IGSA,Yes,172,04.11.2017,25.07.1995,211,197,183,148,86,127,292,1435,899,752,83,114,74,109,61,87,16,70,55,30,29,83,COUNTY (SHERIFF),372,1.02,66758,230,42.315524,-85.176253
NA,NA,714,0,,Redacted Redacted Redacted Redacted,Redacted,Redacted,Redacted,Redacted,Redacted,Redacted,Redacted,5,SNA,HLG,ORR,ORR,No,141,04.11.2017,23.06.2013,143,130,145,199,87,153,130,1287,2305,1133,130,0,145,0,199,0,87,0,0,0,0,130,,372,1.02,52861,262,NA,NA
33.7473,-84.3955,703,33.7473,,254 PEACHTREE STREET SOUTHWEST ATLANTA GA 30303,ATLANGA,ATLANTA CITY DETENTION CENTER,254 PEACHTREE STREET SOUTHWEST,ATLANTA,FULTON,GA,30303,11,ATL,ATL,USMS IGA,USMS IGA,Yes,240,04.11.2017,17.09.1996,356,277,257,139,16,14,579,2739,1429,437,142,136,152,106,46,94,2,13,52,36,42,147,CITY,372,1.02,93978,435,33.747549,-84.39569
39.0366,-84.7283,695,39.0366,,3020 CONRAD LANE BURLINGTON KY 41005,BOONEKY,BOONE COUNTY JAIL,3020 CONRAD LANE,BURLINGTON,BOONE,KY,41005,6,CHI,CHI,USMS IGA,USMS IGA,Yes,136,04.11.2017,15.02.1994,150,134,154,142,119,146,255,1623,1288,1170,30,104,32,121,12,130,9,110,37,37,29,30,COUNTY (JAILER),372,1.02,56080,195,39.037352,-84.723517
41.6657,-70.9949,691,41.6657,,400 FAUNCE CORNER ROAD NORTH DARTMOUTH MA 2747,BRINDMA,BRISTOL COUNTY DETENTION CENTER,400 FAUNCE CORNER ROAD,NORTH DARTMOUTH,BRISTOL,MA,2747,1,BOS,BOS,IGSA,IGSA,Yes,193,04.11.2017,19.08.1996,199,177,176,116,81,141,215,875,579,469,41,136,47,129,33,83,10,71,98,16,22,41,COUNTY (SHERIFF),372,1.02,64241,200,41.666564,-70.991261
33.065474,-111.378465,687,0,,3250 NORTH PINAL PARKWAY FLORENCE AZ 85232,FSF,FLORENCE STAGING FACILITY,3250 NORTH PINAL PARKWAY,FLORENCE,PINAL,AZ,85232,9,PHO,FLO,Other,STAGING,Yes,156,04.11.2017,21.05.1986,276,158,130,137,121,141,2774,30432,30628,28878,80,78,62,68,73,64,50,71,23,16,36,83,AKAL,372,1.02,47437,366,33.065474,-111.378465
NA,NA,629,0,,Redacted Redacted Redacted Redacted,Redacted,Redacted,Redacted,Redacted,Redacted,Redacted,Redacted,9,PHO,PHO,ORR,ORR,No,157,04.11.2017,03.10.2009,157,144,147,201,108,29,166,1317,2497,1418,144,0,147,0,200,0,108,0,0,0,0,144,,372,1.02,53790,308,NA,NA
41.9305,-70.6542,618,41.9305,,26 LONG POND ROAD PLYMOUTH MA 2360,PLYMOMA,PLYMOUTH COUNTY CORRECTIONAL FACILITY,26 LONG POND ROAD,PLYMOUTH,PLYMOUTH,MA,2360,1,BOS,BOS,IGSA,IGSA,Yes,235,04.11.2017,01.04.1994,249,233,115,86,61,123,244,746,430,327,105,128,53,63,39,47,13,49,80,28,20,105,COUNTY (SHERIFF),372,1.02,42033,233,41.060721,-75.480918
NA,NA,617,0,,Redacted Redacted Redacted Redacted,Redacted,Redacted,Redacted,Redacted,Redacted,Redacted,Redacted,5,HOU,HOU,ORR,ORR,No,36,04.11.2017,15.04.2013,36,33,95,183,92,214,35,752,1639,842,33,0,95,0,183,0,92,0,0,0,0,33,COUNTY,372,1.02,34796,228,NA,NA
NA,NA,612,0,,Redacted Redacted Redacted Redacted,Redacted,Redacted,Redacted,Redacted,Redacted,Redacted,Redacted,5,SNA,HLG,ORR,ORR,No,109,04.11.2017,24.06.2013,112,106,108,163,89,146,112,946,1703,947,106,0,108,0,163,0,89,0,0,0,0,106,,372,1.02,39449,212,NA,NA
40.1489,-111.66,610,40.1489,,3075 NORTH MAIN STREET SPANISH FORK UT 84660,UTAHCUT,UTAH COUNTY JAIL,3075 NORTH MAIN STREET,SPANISH FORK,UTAH,UT,84660,10,SLC,SLC,IGSA,IGSA,Yes,0,06.12.2016,01.03.1993,0,0,13,215,164,218,4,278,1866,1630,0,0,2,10,48,167,18,145,0,0,0,0,COUNTY (SHERIFF),67,0.18,4698,118,40.148123,-111.656788
40.7182,-74.1286,609,40.7182,,451 DOREMUS AVENUE NEWARK NJ 7105,DHDFNJ,DELANEY HALL DETENTION FACILITY,451 DOREMUS AVENUE,NEWARK,NEWARK,NJ,7105,3,NEW,NEW,IGSA,IGSA,Yes,0,22.02.2017,29.08.2011,0,0,0,181,126,302,0,2,1190,1117,0,0,0,0,161,20,105,21,0,0,0,0,CEC,145,0.4,146,2,40.71729,-74.127757
NA,NA,592,0,,Redacted Redacted Redacted Redacted,Redacted,Redacted,Redacted,Redacted,Redacted,Redacted,Redacted,5,SNA,HLG,ORR,ORR,No,140,04.11.2017,12.06.2013,144,130,119,173,62,108,137,1004,1753,761,129,1,119,0,173,1,61,1,1,0,0,129,,372,1.02,43574,228,NA,NA
33.7483,-117.874,584,33.7483,,62 CIVIC CENTER PLAZA SANTA ANA CA 92701,SACITCA,SANTA ANA CITY JAIL,62 CIVIC CENTER PLAZA,SANTA ANA,ORANGE,CA,92701,9,LOS,LOS,IGSA,IGSA,Yes,0,08.05.2017,12.06.1997,0,0,64,189,161,170,98,940,2886,2661,0,0,22,42,62,128,48,113,0,0,0,0,CITY,220,0.6,23180,191,33.75061,-117.86761
NA,NA,577,0,,Redacted Redacted Redacted Redacted,Redacted,Redacted,Redacted,Redacted,Redacted,Redacted,Redacted,5,SNA,HLG,ORR,ORR,No,95,04.11.2017,16.10.1988,96,83,118,156,64,156,66,916,1477,762,83,0,118,0,156,0,64,0,0,0,0,83,ORR,372,1.02,43060,251,NA,NA
NA,NA,576,0,,Redacted Redacted Redacted Redacted,Redacted,Redacted,Redacted,Redacted,Redacted,Redacted,Redacted,5,HOU,HOU,ORR,ORR,No,84,04.11.2017,06.12.2010,101,90,96,135,77,178,141,868,1278,562,89,1,95,0,135,0,77,0,0,0,1,89,,363,0.99,34940,259,NA,NA
32.484739,-114.683596,552,0,,406 NORTH AVENUE D SAN LUIS AZ 85349,SLRDCAZ,SAN LUIS REGIONAL DETENTION CENTER,406 NORTH AVENUE D,SAN LUIS,YUMA,AZ,85349,9,PHO,YUM,USMS IGA,USMS IGA,Yes,271,04.11.2017,28.01.2008,288,226,162,101,5,58,1606,7074,4078,326,205,21,151,12,97,4,4,1,9,7,6,205,LASALLE CORRECTIONS,327,0.9,59175,455,32.484739,-114.683596
NA,NA,546,0,,Redacted Redacted Redacted Redacted,Redacted,Redacted,Redacted,Redacted,Redacted,Redacted,Redacted,9,PHO,PHO,ORR,ORR,No,115,04.11.2017,23.08.2012,117,105,88,126,123,104,107,663,1095,734,105,0,88,0,126,0,123,0,0,0,0,105,,372,1.02,32288,151,NA,NA
NA,NA,536,0,,Redacted Redacted Redacted Redacted,Redacted,Redacted,Redacted,Redacted,Redacted,Redacted,Redacted,11,MIA,MIA,ORR,ORR,No,93,04.11.2017,20.06.2008,116,104,62,82,103,185,154,620,1063,767,104,0,62,0,82,0,103,0,0,0,0,104,ORR,372,1.02,22652,109,NA,NA
NA,NA,528,0,,Redacted Redacted Redacted Redacted,Redacted,Redacted,Redacted,Redacted,Redacted,Redacted,Redacted,2,NYC,VRK,ORR,ORR,No,163,04.11.2017,24.05.2014,163,146,144,174,51,13,169,1288,2219,570,146,0,144,0,174,0,51,0,0,0,0,146,,372,1.02,52630,395,NA,NA
NA,NA,515,0,,Redacted Redacted Redacted Redacted,Redacted,Redacted,Redacted,Redacted,Redacted,Redacted,Redacted,10,ELP,,ORR,ORR,No,0,12.07.2017,06.09.2016,0,0,489,26,0,0,45,5671,505,0,0,0,489,0,26,0,0,0,0,0,0,0,,285,0.78,178489,1784,NA,NA
39.3881,-84.5559,510,39.3881,,705 HANOVER STREET HAMILTON OH 45011,BUTLEOH,BUTLER COUNTY JAIL,705 HANOVER STREET,HAMILTON,BUTLER,OH,45011,6,DET,CLM,IGSA,IGSA,Yes,132,04.11.2017,03.10.2002,181,167,124,81,55,83,199,1037,626,584,66,101,37,87,19,62,4,51,32,32,38,66,COUNTY (SHERIFF),372,1.02,45437,178,39.38989,-84.555628
NA,NA,482,0,,Redacted Redacted Redacted Redacted,Redacted,Redacted,Redacted,Redacted,Redacted,Redacted,Redacted,9,PHO,PHO,ORR,ORR,No,126,04.11.2017,06.04.1992,128,111,77,112,78,104,103,694,981,709,111,0,77,0,112,0,77,1,0,0,0,111,ORR,372,1.02,27959,141,NA,NA
NA,NA,481,0,,Redacted Redacted Redacted Redacted,Redacted,Redacted,Redacted,Redacted,Redacted,Redacted,Redacted,2,NYC,VRK,ORR,ORR,No,144,04.11.2017,15.01.2005,146,110,94,120,76,81,119,455,783,556,108,1,91,3,118,1,74,2,1,0,0,108,ORR,372,1.02,34328,140,NA,NA
35.181496,-107.90851,474,0,,2000 CIBOLA LOOP MILAN NM 87021,CIBOCNM,CIBOLA COUNTY CORRECTIONAL CENTER,2000 CIBOLA LOOP,MILAN,CIBOLA,NM,87021,10,ELP,CIB,IGSA,IGSA,Yes,236,04.11.2017,27.12.2016,236,180,294,0,0,0,960,3615,0,0,123,57,197,97,0,0,0,0,21,13,24,123,CCA,285,0.78,107368,798,35.181496,-107.90851
37.269,-89.1641,464,37.269,,1026 SHAWNEE COLLEGE ROAD ULLIN IL 62992,PULASIL,PULASKI COUNTY JAIL,1026 SHAWNEE COLLEGE ROAD,ULLIN,PULASKI,IL,62992,7,CHI,CHI,IGSA,IGSA,Yes,172,04.11.2017,26.02.2016,184,171,191,102,0,0,477,2827,1709,0,48,123,48,142,31,71,0,0,52,34,36,49,COUNTY,372,1.02,69552,266,37.271969,-89.164242
NA,NA,463,0,,Redacted Redacted Redacted Redacted,Redacted,Redacted,Redacted,Redacted,Redacted,Redacted,Redacted,2,NYC,VRK,ORR,ORR,No,148,04.11.2017,17.06.2012,155,126,80,116,40,101,85,601,1092,493,124,2,79,0,116,0,40,0,0,0,2,124,,372,1.02,29026,158,NA,NA
26.2966,-97.9181,459,26.2966,,1330 HIGHWAY 107 LA VILLA TX 78562,EHDLGTX,EAST HIDALGO DETENTION CENTER,1330 HIGHWAY 107,LA VILLA,HIDALGO,TX,78562,5,SNA,HLG,USMS IGA,USMS IGA,Yes,74,04.11.2017,23.03.2011,100,78,51,128,40,162,137,3208,7264,3607,68,10,39,12,111,17,30,10,5,3,2,68,GEO,370,1.01,18504,157,26.294515,-97.928756
28.8858,-97.9112,457,28.8858,,FM 1144 AT US HIGHWAY 181 KARNES CITY TX 78118,KCCDCTX,KARNES COUNTY CIVIL DETENTION CENTER,FM 1144 AT US HIGHWAY 181,KARNES CITY,KARNES,TX,78118,5,SNA,KCD,IGSA,DIGSA,Yes,0,05.08.2014,01.01.2012,0,0,0,0,0,457,0,0,0,0,0,0,0,0,0,0,0,0,0,0,0,0,GEO,0,0,0,0,28.885953,-97.910733
32.801908,-115.569947,451,0,,1115 NORTH IMPERIAL AVENUE EL CENTRO CA 92243,ECC,EL CENTRO SERVICE PROCESSING CENTER,1115 NORTH IMPERIAL AVENUE,EL CENTRO,IMPERIAL,CA,92243,9,SND,ECC,SPC,SPC,Yes,0,25.09.2014,03.06.1983,0,0,0,0,0,451,0,0,0,0,0,0,0,0,0,0,0,0,0,0,0,0,ASSET (GUARD),0,0,0,0,32.801908,-115.569947
NA,NA,426,0,,Redacted Redacted Redacted Redacted,Redacted,Redacted,Redacted,Redacted,Redacted,Redacted,Redacted,5,SNA,SNA,ORR,ORR,No,85,04.11.2017,05.05.2012,86,71,53,91,75,136,67,355,827,746,71,0,53,0,90,1,75,0,0,0,0,71,,372,1.02,19508,90,NA,NA
NA,NA,420,0,,Redacted Redacted Redacted Redacted,Redacted,Redacted,Redacted,Redacted,Redacted,Redacted,Redacted,5,HOU,HOU,ORR,ORR,No,71,04.11.2017,28.04.2005,72,66,97,130,51,76,78,668,945,488,65,2,97,0,130,0,51,0,2,0,0,65,ORR,372,1.02,35396,210,NA,NA
30.1966,-84.3773,409,30.1966,,15 OAK STREET CRAWFORDVILLE FL 32327,WAKULFL,WAKULLA COUNTY JAIL,15 OAK STREET,CRAWFORDVILLE,WAKULLA,FL,32327,11,MIA,KRO,IGSA,IGSA,Yes,107,04.11.2017,06.01.1999,118,105,102,62,56,84,230,881,491,463,6,99,5,97,1,61,2,54,87,7,4,6,COUNTY (SHERIFF),372,1.02,37174,128,30.196064,-84.377121
41.128585,-80.626903,402,0,,2240 HUBBARD ROAD YOUNGSTOWN OH 44505,CCANOOH,NORTHEAST OHIO CORRECTIONAL CTR (YOUNGSTOWN CDF),2240 HUBBARD ROAD,YOUNGSTOWN,MAHONING,OH,44505,6,DET,CLE,CDF,CDF,Yes,272,04.11.2017,18.12.2016,274,246,156,0,0,0,289,978,0,0,102,144,104,52,0,0,0,0,106,15,23,102,CCA,294,0.81,56921,279,41.128585,-80.626903
NA,NA,388,0,,Redacted Redacted Redacted Redacted,Redacted,Redacted,Redacted,Redacted,Redacted,Redacted,Redacted,9,PHO,PHO,ORR,ORR,No,88,04.11.2017,11.05.2012,89,86,66,94,56,86,94,534,858,524,86,0,66,0,93,0,56,0,0,0,0,86,,372,1.02,24157,104,NA,NA
36.253,-115.975,387,36.253,,2190 EAST MESQUITE AVENUE PAHRUMP NV 89060,NVSDCNV,NEVADA SOUTHERN DETENTION CENTER,2190 EAST MESQUITE AVENUE,PAHRUMP,NYE,NV,89060,9,SLC,SLC,USMS IGA,USMS IGA,Yes,145,04.11.2017,02.05.2016,165,140,173,74,0,0,181,1508,827,0,22,117,54,119,59,15,0,0,54,25,37,22,CCA,372,1.02,63052,247,36.249135,-115.997402
37.271969,-89.164242,378,0,,1026 SHAWNEE COLLEGE ROAD ULLIN IL 62992,TRICOIL,TRI-COUNTY DETENTION CENTER,1026 SHAWNEE COLLEGE ROAD,ULLIN,PULASKI,IL,62992,7,CHI,CHI,IGSA,IGSA,Yes,0,06.03.2016,28.05.1999,0,0,0,65,130,183,0,0,1057,2319,0,0,0,0,15,50,9,122,0,0,0,0,COUNTY,0,0,0,0,37.271969,-89.164242
32.888854,-112.033477,374,0,,971 N. JASON LOPEZ CIRCLE FLORENCE AZ 85132,PINALAZ,PINAL COUNTY JAIL,971 N. JASON LOPEZ CIRCLE,FLORENCE,PINAL,AZ,85132,9,PHO,FLO,IGSA,IGSA,Yes,0,27.09.2017,30.10.1992,0,0,0,0,0,374,1,1,1,3,0,0,0,0,0,0,0,0,0,0,0,0,COUNTY (SHERIFF),1,0,1,1,32.888854,-112.033477
NA,NA,368,0,,Redacted Redacted Redacted Redacted,Redacted,Redacted,Redacted,Redacted,Redacted,Redacted,Redacted,5,HOU,HOU,ORR,ORR,No,62,04.11.2017,01.05.2006,70,62,62,96,57,91,65,692,1050,738,62,0,62,0,96,0,57,0,0,0,0,62,ORR,372,1.02,22606,119,NA,NA
NA,NA,356,0,,Redacted Redacted Redacted Redacted,Redacted,Redacted,Redacted,Redacted,Redacted,Redacted,Redacted,5,ELP,EPC,ORR,ORR,No,64,04.11.2017,22.04.1996,79,70,68,86,60,72,84,684,933,903,70,0,68,1,86,0,60,0,0,0,0,70,ORR,372,1.02,24969,104,NA,NA
NA,NA,349,0,,Redacted Redacted Redacted Redacted,Redacted,Redacted,Redacted,Redacted,Redacted,Redacted,Redacted,9,PHO,PHO,ORR,ORR,No,82,04.11.2017,16.05.2014,84,77,77,111,57,27,79,522,930,582,77,0,77,0,111,0,56,1,0,0,0,77,,372,1.02,28057,139,NA,NA
40.3793,-76.0195,348,40.3793,,1040 BERKS ROAD LEESPORT PA 19533,BEFAMPA,BERKS COUNTY FAMILY SHELTER,1040 BERKS ROAD,LEESPORT,BERKS,PA,19533,3,PHI,BRK,IGSA,FAMILY,Yes,67,04.11.2017,07.01.2001,71,59,65,79,80,65,45,623,429,462,58,1,65,0,79,0,80,0,0,0,1,58,COUNTY,372,1.02,23814,88,40.25332,-75.806738
42.5959,-72.6138,346,42.5959,,160 ELM STREET GREENFIELD MA 1301,GREENMA,FRANKLIN COUNTY HOUSE OF CORRECTION,160 ELM STREET,GREENFIELD,FRANKLIN,MA,1301,1,BOS,BOS,USMS IGA,USMS IGA,Yes,64,04.11.2017,23.12.1998,78,68,72,71,65,70,182,702,592,530,20,48,13,59,4,67,3,63,36,9,4,19,COUNTY (SHERIFF),372,1.02,26138,94,41.756835,-74.556964
43.646,-93.368,337,43.646,,411 SOUTH BROADWAY AVENUE ALBERT LEA MN 56007,FREEBMN,FREEBORN COUNTY ADULT DETENTION CENTER,411 SOUTH BROADWAY AVENUE,ALBERT LEA,FREEBORN,MN,56007,8,SPM,SPM,IGSA,IGSA,Yes,89,04.11.2017,15.09.1996,102,95,82,61,44,55,140,698,493,371,34,62,23,59,17,44,4,41,28,15,17,34,COUNTY (SHERIFF),372,1.02,30000,103,43.645908,-93.368695
39.1694,-76.7818,337,39.1694,,7301 WATERLOO ROAD JESSUP MD 20794,HOWARMD,HOWARD COUNTY DETENTION CENTER,7301 WATERLOO ROAD,JESSUP,HOWARD,MD,20794,4,BAL,BAL,IGSA,IGSA,Yes,93,04.11.2017,25.11.1987,95,88,69,60,49,71,113,459,440,238,27,61,18,51,29,31,10,39,32,13,16,27,COUNTY (CORRECTIONS),372,1.02,25268,96,39.168995,-76.783253
NA,NA,331,0,,Redacted Redacted Redacted Redacted,Redacted,Redacted,Redacted,Redacted,Redacted,Redacted,Redacted,5,ELP,EPC,ORR,ORR,No,66,04.11.2017,09.01.2004,67,66,66,75,56,68,80,363,642,643,66,0,66,0,75,0,56,0,0,0,0,66,ORR,372,1.02,24216,97,NA,NA
41.0796,-83.2082,329,41.0796,,3040 SOUTH STATE HIGHWAY 100 TIFFIN OH 44883,SENECOH,SENECA COUNTY JAIL,3040 SOUTH STATE HIGHWAY 100,TIFFIN,SENECA,OH,44883,6,DET,CLE,IGSA,IGSA,Yes,80,04.11.2017,22.03.1996,95,84,71,49,45,80,93,719,430,650,64,20,39,32,18,31,5,40,5,7,9,64,COUNTY (SHERIFF),372,1.02,26042,109,41.080227,-83.153132
NA,NA,321,0,,Redacted Redacted Redacted Redacted,Redacted,Redacted,Redacted,Redacted,Redacted,Redacted,Redacted,9,LOS,LOS,ORR,ORR,No,71,04.11.2017,07.07.2007,72,64,62,88,53,54,85,382,661,425,64,0,61,0,88,0,53,1,0,0,0,64,ORR,372,1.02,22512,101,NA,NA
41.2534,-95.9384,319,41.2534,,710 SOUTH 17TH ST OMAHA NE 68102,DOCORNE,DOUGLAS COUNTY DEPARTMENT OF CORRECTIONS,710 SOUTH 17TH ST,OMAHA,DOUGLAS,NE,68102,8,SPM,OMA,IGSA,IGSA,Yes,41,04.11.2017,05.03.1991,43,41,63,82,62,71,37,239,570,622,5,37,4,58,8,74,5,57,10,13,14,5,COUNTY (CORRECTIONS),372,1.02,22870,130,41.254084,-95.938243
NA,NA,312,0,,Redacted Redacted Redacted Redacted,Redacted,Redacted,Redacted,Redacted,Redacted,Redacted,Redacted,4,WAS,WAS,ORR,ORR,No,80,04.11.2017,15.08.2012,96,83,70,84,31,44,100,384,598,221,83,0,70,0,84,0,31,0,0,0,0,83,,372,1.02,25666,117,NA,NA
42.9423,-82.4795,302,42.9423,,1170 MICHIGAN ROAD PORT HURON MI 48060,STCLAMI,SAINT CLAIR COUNTY JAIL,1170 MICHIGAN ROAD,PORT HURON,SAINT CLAIR,MI,48060,6,DET,DET,IGSA,IGSA,Yes,89,04.11.2017,05.09.1991,90,82,61,69,41,49,113,559,567,506,48,34,30,31,31,38,14,27,15,6,13,48,COUNTY (SHERIFF),372,1.02,22431,86,42.941496,-82.481391
NA,NA,302,0,,Redacted Redacted Redacted Redacted,Redacted,Redacted,Redacted,Redacted,Redacted,Redacted,Redacted,5,SNA,SNA,ORR,ORR,No,47,04.11.2017,09.05.2013,51,44,55,74,63,66,47,402,687,531,44,0,55,0,74,0,63,0,0,0,0,44,COUNTY,372,1.02,20102,92,NA,NA
41.8956,-83.3933,293,41.8956,,7000 EAST DUNBAR ROAD MONROE MI 48161,MONROMI,MONROE COUNTY DETENTION-DORM,7000 EAST DUNBAR ROAD,MONROE,MONROE,MI,48161,6,DET,DET,IGSA,IGSA,Yes,54,04.11.2017,13.07.1995,82,63,64,51,43,72,107,1344,822,851,34,29,35,30,33,18,13,30,5,13,10,34,COUNTY (SHERIFF),372,1.02,23538,106,41.893372,-83.396478
NA,NA,293,0,,Redacted Redacted Redacted Redacted,Redacted,Redacted,Redacted,Redacted,Redacted,Redacted,Redacted,5,HOU,,ORR,ORR,No,115,04.11.2017,23.04.2016,116,101,126,66,0,0,76,865,583,0,101,0,126,0,66,0,0,0,0,0,0,101,,372,1.02,45990,235,NA,NA
NA,NA,292,0,,Redacted Redacted Redacted Redacted,Redacted,Redacted,Redacted,Redacted,Redacted,Redacted,Redacted,5,SNA,HLG,ORR,ORR,No,50,04.11.2017,27.06.2013,50,46,57,81,43,65,52,342,705,434,46,0,57,0,81,0,43,0,0,0,0,46,,372,1.02,20855,100,NA,NA
43.2187,-70.9351,283,43.2187,,266 COUNTY FARM ROAD DOVER NH 3820,STRAFNH,STRAFFORD COUNTY CORRECTIONS,266 COUNTY FARM ROAD,DOVER,STRAFFORD,NH,3820,1,BOS,BOS,IGSA,IGSA,Yes,56,04.11.2017,11.02.1991,87,65,95,67,29,27,175,888,471,517,20,45,33,62,24,43,10,18,27,8,9,20,COUNTY (CORRECTIONS),372,1.02,34578,130,43.218476,-70.940417
24.576051,-81.749543,274,0,,5501 COLLEGE ROAD KEY WEST FL 33040,MONROFL,MONROE COUNTY DETENTION CENTER,5501 COLLEGE ROAD,KEY WEST,MONROE,FL,33040,11,MIA,KRO,IGSA,IGSA,Yes,69,04.11.2017,20.09.1995,71,61,58,52,46,57,78,482,385,283,4,57,7,51,3,49,3,43,37,8,10,5,COUNTY (SHERIFF),345,0.95,21205,74,24.576051,-81.749543
NA,NA,273,0,,Redacted Redacted Redacted Redacted,Redacted,Redacted,Redacted,Redacted,Redacted,Redacted,Redacted,11,MIA,MIA,ORR,ORR,No,63,04.11.2017,28.11.1985,66,64,37,43,52,77,103,307,497,452,64,0,37,0,43,0,52,0,0,0,0,64,ORR,372,1.02,13333,72,NA,NA
38.366841,-96.539009,267,0,,301 SOUTH WALNUT STREET COTTONWOOD FALLS KS 66845,CHASEKS,CHASE COUNTY DETENTION FACILITY,301 SOUTH WALNUT STREET,COTTONWOOD FALLS,CHASE,KS,66845,10,CHI,WIC,IGSA,IGSA,Yes,77,04.11.2017,25.07.1994,96,86,63,44,32,42,112,655,444,353,29,57,17,46,9,35,2,30,20,17,20,29,COUNTY (SHERIFF),372,1.02,22960,115,38.366841,-96.539009
NA,NA,264,0,,Redacted Redacted Redacted Redacted,Redacted,Redacted,Redacted,Redacted,Redacted,Redacted,Redacted,5,HOU,HOU,ORR,ORR,No,61,04.11.2017,19.06.2012,61,58,52,66,37,51,66,336,468,298,58,0,52,0,66,0,36,0,0,0,0,58,,372,1.02,18975,100,NA,NA
NA,NA,262,0,,Redacted Redacted Redacted Redacted,Redacted,Redacted,Redacted,Redacted,Redacted,Redacted,Redacted,9,LOS,LOS,ORR,ORR,No,53,04.11.2017,16.03.2011,54,52,50,53,52,55,44,74,53,51,52,0,50,0,51,2,50,2,0,0,0,52,,372,1.02,18327,58,NA,NA
NA,NA,258,0,,Redacted Redacted Redacted Redacted,Redacted,Redacted,Redacted,Redacted,Redacted,Redacted,Redacted,9,PHO,,ORR,ORR,No,32,04.11.2017,23.04.2016,33,14,140,104,0,0,47,1126,1064,0,14,0,140,0,104,0,0,0,0,0,0,14,,372,1.02,51218,291,NA,NA
NA,NA,256,0,,Redacted Redacted Redacted Redacted,Redacted,Redacted,Redacted,Redacted,Redacted,Redacted,Redacted,5,SNA,,ORR,ORR,No,57,04.11.2017,13.09.2014,57,55,78,100,23,0,54,495,1017,317,55,0,78,0,100,0,23,0,0,0,0,55,,372,1.02,28383,133,NA,NA
NA,NA,254,0,,Redacted Redacted Redacted Redacted,Redacted,Redacted,Redacted,Redacted,Redacted,Redacted,Redacted,7,CHI,CHI,ORR,ORR,No,44,04.11.2017,03.07.2010,47,43,46,62,44,59,47,262,377,300,43,0,46,0,62,0,44,0,0,0,0,43,,372,1.02,16790,76,NA,NA
26.4676,-97.7681,250,26.4676,,1601 BUFFALO DRIVE RAYMONDVILLE TX 78580,WCRDFTX,WILLACY CO REGIONAL DETENTION FACILITY,1601 BUFFALO DRIVE,RAYMONDVILLE,WILLACY,TX,78580,5,SNA,PIC,USMS IGA,USMS IGA,Yes,181,04.11.2017,11.07.2014,202,171,49,23,1,6,210,2441,2767,339,157,14,42,6,20,2,1,0,6,2,6,157,M&TC,223,0.61,17830,220,26.46788,-97.768318
NA,NA,245,0,,Redacted Redacted Redacted Redacted,Redacted,Redacted,Redacted,Redacted,Redacted,Redacted,Redacted,5,SNA,HLG,ORR,ORR,No,49,04.11.2017,28.04.2013,50,46,47,69,33,50,52,440,722,426,46,0,47,0,69,0,33,0,0,0,0,46,,372,1.02,17115,92,NA,NA
42.3601,-93.0976,242,42.3601,,1116 14TH AVENUE ELDORA IA 50627,HARDJIA,HARDIN COUNTY JAIL,1116 14TH AVENUE,ELDORA,HARDIN,IA,50627,8,SPM,OMA,IGSA,IGSA,Yes,78,04.11.2017,17.09.1997,84,67,67,45,24,39,100,416,285,245,11,57,20,46,18,27,1,23,32,16,8,12,COUNTY (SHERIFF),372,1.02,24332,84,42.359837,-93.097204
41.118644,-87.888099,242,0,,3050 JUSTICE WAY KANKAKEE IL 60901,KANKEIL,KANKAKEE COUNTY JAIL (JEROME COMBS DET CTR),3050 JUSTICE WAY,KANKAKEE,KANKAKEE,IL,60901,7,CHI,CHI,USMS IGA,USMS IGA,Yes,143,04.11.2017,08.10.2016,191,139,103,0,0,0,489,4644,0,0,55,83,67,36,0,0,0,0,33,28,22,55,COUNTY,365,1,37698,181,41.118644,-87.888099
NA,NA,242,0,,Redacted Redacted Redacted Redacted,Redacted,Redacted,Redacted,Redacted,Redacted,Redacted,Redacted,3,PHI,PHI,ORR,ORR,No,61,04.11.2017,07.05.2013,61,53,50,66,20,53,57,296,698,234,53,0,50,0,66,0,20,0,0,0,0,53,COUNTY,372,1.02,18158,87,NA,NA
28.0462,-99.3527,233,28.0462,,832 EAST TEXAS STATE HIGHWAY 44 ENCINAL TX 78019,LSRDCTX,LA SALLE COUNTY REGIONAL DETENTION CENTER,832 EAST TEXAS STATE HIGHWAY 44,ENCINAL,LA SALLE,TX,78019,5,SNA,LRD,USMS IGA,USMS IGA,Yes,0,04.11.2017,10.06.2011,0,0,35,35,1,162,57,1037,1215,4,0,0,30,5,28,7,1,0,0,0,0,0,COUNTY,117,0.32,12778,200,28.046614,-99.367001
41.5047,-81.1915,230,41.5047,,12450 MERRITT DR CHARDON OH 44024,GEAUGOH,GEAUGA COUNTY JAIL,12450 MERRITT DR,CHARDON,GEAUGA,OH,44024,6,DET,CLE,USMS IGA,USMS IGA,Yes,92,04.11.2017,05.04.1996,92,81,50,38,33,28,102,438,338,734,31,50,30,20,17,21,2,31,17,15,19,31,COUNTY (SHERIFF),372,1.02,18160,76,41.503706,-81.193006
39.5237,-87.119,228,39.5237,,611 EAST JACKSON STREET BRAZIL IN 47834,CLAYCIN,CLAY COUNTY JAIL,611 EAST JACKSON STREET,BRAZIL,CLAY,IN,47834,7,CHI,CHI,USMS IGA,USMS IGA,Yes,46,04.11.2017,23.07.2013,62,37,51,53,52,35,348,2155,1767,1631,9,28,7,44,4,48,4,48,11,8,9,9,COUNTY (SHERIFF),372,1.02,18595,91,39.523813,-87.120234
NA,NA,223,0,,Redacted Redacted Redacted Redacted,Redacted,Redacted,Redacted,Redacted,Redacted,Redacted,Redacted,5,HOU,,ORR,ORR,No,89,04.11.2017,10.06.2016,101,90,89,44,0,0,79,655,377,0,89,1,89,0,44,0,0,0,0,0,1,89,,372,1.02,32495,188,NA,NA
32.857146,-104.412724,221,0,,1300 W. RICHEY AVENUE ARTESIA NM 88210,AFRC,ARTESIA FAMILY RESIDENTIAL CENTER,1300 W. RICHEY AVENUE,ARTESIA,COUNTY,NM,88210,10,ELP,EPC,IGSA,FAMILY,Yes,0,17.12.2014,27.06.2014,0,0,0,0,87,134,0,0,0,391,0,0,0,0,0,0,87,0,0,0,0,0,GEO,0,0,0,0,32.857146,-104.412724
38.431556,-92.840072,219,0,,211 EAST NEWTON STREET VERSAILLES MO 65084,MORGNMO,MORGAN COUNTY ADULT DETENTION CENTER,211 EAST NEWTON STREET,VERSAILLES,MORGAN,MO,65084,8,CHI,KAN,IGSA,IGSA,Yes,50,04.11.2017,28.02.2003,61,54,55,51,29,30,55,591,522,288,19,35,13,42,6,45,3,26,13,6,16,19,COUNTY (SHERIFF),372,1.02,20121,82,38.431556,-92.840072
NA,NA,218,0,,Redacted Redacted Redacted Redacted,Redacted,Redacted,Redacted,Redacted,Redacted,Redacted,Redacted,5,SNA,HLG,ORR,ORR,No,32,04.11.2017,20.06.2013,40,36,31,47,43,61,40,318,486,552,36,0,31,0,47,0,43,0,0,0,0,36,COUNTY,372,1.02,11381,55,NA,NA
NA,NA,216,0,,Redacted Redacted Redacted Redacted,Redacted,Redacted,Redacted,Redacted,Redacted,Redacted,Redacted,9,PHO,PHO,ORR,ORR,No,65,04.11.2017,10.03.2008,65,56,40,52,33,35,55,302,511,358,56,0,40,0,52,0,32,0,0,0,0,56,ORR,372,1.02,14750,71,NA,NA
39.3655,-77.4136,215,39.3655,,7300 MARCIE'S CHOICE LANE FREDERICK MD 21704,FREDEMD,FREDERICK COUNTY DETENTION CENTER,7300 MARCIE'S CHOICE LANE,FREDERICK,FREDERICK,MD,21704,4,BAL,BAL,IGSA,IGSA,Yes,45,04.11.2017,03.08.2006,51,42,42,39,40,52,43,331,317,339,22,19,20,22,11,29,7,32,3,4,12,23,COUNTY (SHERIFF),372,1.02,15204,54,39.365107,-77.413964
34.7673,-106.019,215,34.7673,,COUNTY ROAD 49 ESTANCIA NM 87016,TOORANM,TORRANCE COUNTY DETENTION FACILITY,COUNTY ROAD 49,ESTANCIA,TORRANCE,NM,87016,10,ELP,ABQ,USMS IGA,USMS IGA,Yes,0,01.06.2017,14.03.2001,0,0,170,45,0,0,29,2288,1634,7,0,0,101,68,28,17,0,0,0,0,0,0,CCA,190,0.52,61949,461,34.90747,-106.694865
NA,NA,214,0,,Redacted Redacted Redacted Redacted,Redacted,Redacted,Redacted,Redacted,Redacted,Redacted,Redacted,5,SNA,,ORR,ORR,No,140,04.11.2017,19.08.2016,140,134,70,10,0,0,141,706,166,0,134,0,70,0,10,0,0,0,0,0,0,134,,372,1.02,25461,144,NA,NA
NA,NA,213,0,,Redacted Redacted Redacted Redacted,Redacted,Redacted,Redacted,Redacted,Redacted,Redacted,Redacted,9,SND,SND,ORR,ORR,No,66,04.11.2017,26.05.2007,67,64,63,46,26,14,88,453,432,288,64,0,63,0,46,0,26,0,0,0,0,64,ORR,372,1.02,23000,93,NA,NA
NA,NA,211,0,,Redacted Redacted Redacted Redacted,Redacted,Redacted,Redacted,Redacted,Redacted,Redacted,Redacted,6,DET,DET,ORR,ORR,No,98,04.11.2017,28.10.1993,98,96,70,40,0,5,83,202,429,237,96,0,70,0,40,0,0,0,0,0,0,96,ORR,372,1.02,25631,93,NA,NA
37.2166,-76.6036,207,37.2166,,9320 MERRIMAC TRAIL WILLIAMSBURG VA 23185,VPREGVA,VIRGINIA PENINSULA REGIONAL JAIL,9320 MERRIMAC TRAIL,WILLIAMSBURG,JAMES CITY,VA,23185,4,WAS,WAS,USMS IGA,USMS IGA,Yes,54,04.11.2017,22.10.1997,76,55,62,50,39,1,88,376,267,458,18,37,16,46,8,42,5,34,15,9,13,18,COUNTY,372,1.02,22535,91,37.216367,-76.604942
38.404207,-77.419184,206,0,,1745 JEFFERSON DAVIS HIGHWAY STAFFORD VA 22554,RAPPSVA,RAPPAHANNOCK REGIONAL JAIL,1745 JEFFERSON DAVIS HIGHWAY,STAFFORD,FREDERICKSBURG CITY,VA,22554,4,WAS,WAS,USMS IGA,USMS IGA,Yes,0,29.04.2015,27.08.1987,0,0,0,0,42,164,0,0,0,303,0,0,0,0,0,0,9,33,0,0,0,0,COUNTY (JAILER),0,0,0,0,38.404207,-77.419184
42.012212,-93.058651,203,0,,2369 JESSUP AVENUE MARSHALLTOWN IA 50158,MARSHIA,MARSHALL COUNTY JAIL,2369 JESSUP AVENUE,MARSHALLTOWN,MARSHALL,IA,50158,8,SPM,OMA,USMS IGA,USMS IGA,Yes,67,04.11.2017,06.02.1992,82,71,58,31,24,19,78,514,219,243,20,51,15,43,3,28,1,23,19,9,23,20,COUNTY (SHERIFF),372,1.02,21033,86,42.012212,-93.058651
NA,NA,203,0,,Redacted Redacted Redacted Redacted,Redacted,Redacted,Redacted,Redacted,Redacted,Redacted,Redacted,5,ELP,ELP,ORR,ORR,No,48,04.11.2017,21.03.2012,48,41,38,49,35,40,49,304,505,485,41,0,38,0,49,0,35,0,0,0,0,41,,372,1.02,13953,52,NA,NA
NA,NA,196,0,,Redacted Redacted Redacted Redacted,Redacted,Redacted,Redacted,Redacted,Redacted,Redacted,Redacted,5,SNA,HLG,ORR,ORR,No,27,04.11.2017,25.06.2013,31,28,18,34,52,64,32,198,407,540,28,0,18,0,34,0,52,0,0,0,0,28,COUNTY,372,1.02,6748,38,NA,NA
NA,NA,192,0,,Redacted Redacted Redacted Redacted,Redacted,Redacted,Redacted,Redacted,Redacted,Redacted,Redacted,5,SNA,SNA,ORR,ORR,No,32,04.11.2017,16.08.2011,33,31,35,42,32,52,30,311,380,369,31,0,35,0,42,0,32,0,0,0,0,31,,372,1.02,12911,57,NA,NA
40.9269,-98.3281,187,40.9269,,110 PUBLIC SAFETY DRIVE GRAND ISLAND NE 68801,HASHENE,HALL COUNTY DEPARTMENT OF CORRECTIONS,110 PUBLIC SAFETY DRIVE,GRAND ISLAND,HALL,NE,68801,8,SPM,OMA,IGSA,IGSA,Yes,77,04.11.2017,04.02.1992,92,77,60,14,10,26,91,526,110,105,14,64,11,48,4,10,0,10,29,22,13,13,COUNTY (SHERIFF),372,1.02,21741,108,40.87227,-98.368698
NA,NA,181,0,,Redacted Redacted Redacted Redacted,Redacted,Redacted,Redacted,Redacted,Redacted,Redacted,Redacted,9,LOS,LOS,ORR,ORR,No,34,04.11.2017,27.03.2012,36,33,36,49,29,34,51,267,449,363,33,0,36,0,49,0,29,0,0,0,0,33,,372,1.02,13152,58,NA,NA
27.390015,-99.475622,178,0,,9998 SOUTH HIGHWAY 83 LAREDO TX 78046,WEBDCTX,WEBB COUNTY DETENTION CENTER (CCA),9998 SOUTH HIGHWAY 83,LAREDO,WEBB,TX,78046,5,SNA,LRD,USMS IGA,USMS IGA,Yes,174,04.11.2017,02.11.2016,227,131,47,0,0,0,156,1548,0,0,78,53,29,18,0,0,0,0,20,17,16,78,CCA,296,0.81,17175,197,27.390015,-99.475622
NA,NA,178,0,,Redacted Redacted Redacted Redacted,Redacted,Redacted,Redacted,Redacted,Redacted,Redacted,Redacted,5,SNA,,ORR,ORR,No,59,04.11.2017,23.10.2015,59,53,53,72,0,0,52,493,833,0,53,0,53,0,72,0,0,0,0,0,0,53,,372,1.02,19250,102,NA,NA
NA,NA,177,0,,Redacted Redacted Redacted Redacted,Redacted,Redacted,Redacted,Redacted,Redacted,Redacted,Redacted,2,NYC,VRK,ORR,ORR,No,51,04.11.2017,13.07.2014,58,55,44,57,16,5,54,324,636,216,55,0,44,0,57,0,16,0,0,0,0,55,,372,1.02,16154,90,NA,NA
40.56,-82.8067,176,40.56,,101 HOME ROAD MOUNT GILEAD OH 43338,MOROWOH,MORROW COUNTY CORRECTIONAL FACILITY,101 HOME ROAD,MOUNT GILEAD,MORROW,OH,43338,6,DET,CLM,IGSA,IGSA,Yes,53,04.11.2017,28.08.2009,53,36,32,29,32,47,75,950,896,954,11,25,10,22,8,21,3,29,8,7,10,11,COUNTY (SHERIFF),372,1.02,11790,52,40.559483,-82.805943
34.984406,-81.205334,176,0,,1675-3A YORK HWY YORK SC 29745,YORCOSC,YORK COUNTY DETENTION CENTER,1675-3A YORK HWY,YORK,YORK,SC,29745,4,ATL,CLT,USMS IGA,USMS IGA,Yes,47,04.11.2017,02.01.2002,72,43,44,28,27,34,787,3709,2257,2257,14,29,11,33,2,25,1,26,9,9,10,14,COUNTY (SHERIFF),372,1.02,16018,75,34.984406,-81.205334
NA,NA,175,0,,Redacted Redacted Redacted Redacted,Redacted,Redacted,Redacted,Redacted,Redacted,Redacted,Redacted,5,SNA,HLG,ORR,ORR,No,23,04.11.2017,06.11.2014,30,26,47,68,34,0,31,547,862,516,26,0,47,0,68,0,34,0,0,0,0,26,,372,1.02,17184,94,NA,NA
NA,NA,168,0,,Redacted Redacted Redacted Redacted,Redacted,Redacted,Redacted,Redacted,Redacted,Redacted,Redacted,5,SNA,HLG,ORR,ORR,No,44,04.11.2017,26.06.2013,44,33,28,41,27,39,35,287,452,297,33,0,28,0,41,0,27,0,0,0,0,33,,372,1.02,10181,50,NA,NA
44.789,-93.5933,165,44.789,,600 EAST FOURTH ST. CHASKA MN 55318,CARJAMN,CARVER COUNTY JAIL,600 EAST FOURTH ST.,CHASKA,CARVER,MN,55318,8,SPM,SPM,IGSA,IGSA,Yes,43,04.11.2017,31.10.1990,55,46,38,29,17,35,65,340,212,109,14,32,11,27,4,25,2,15,19,9,5,14,COUNTY (SHERIFF),372,1.02,13840,57,44.788657,-93.594014
NA,NA,161,0,,Redacted Redacted Redacted Redacted,Redacted,Redacted,Redacted,Redacted,Redacted,Redacted,Redacted,5,HOU,HOU,ORR,ORR,No,8,04.11.2017,04.04.2003,8,8,31,38,29,55,32,224,296,188,8,0,29,2,38,1,28,1,0,0,0,8,ORR,372,1.02,11333,56,NA,NA
33.928058,-86.022294,157,0,,2801 JORDAN ROAD FORT PAYNE AL 35968,DEKALAL,DEKALB COUNTY DETENTION CENTER,2801 JORDAN ROAD,FORT PAYNE,DEKALB,AL,35968,11,NOL,NOL,USMS IGA,USMS IGA,Yes,42,04.11.2017,02.09.2008,97,46,33,22,22,34,500,2857,1971,1966,19,27,10,23,3,19,2,20,9,7,11,20,COUNTY (SHERIFF),372,1.02,12163,79,33.928058,-86.022294
NA,NA,157,0,,Redacted Redacted Redacted Redacted,Redacted,Redacted,Redacted,Redacted,Redacted,Redacted,Redacted,5,SNA,,ORR,ORR,No,141,04.11.2017,14.04.2017,150,134,23,0,0,0,137,361,0,0,134,0,23,0,0,0,0,0,0,0,0,134,,177,0.48,8563,146,NA,NA
NA,NA,154,0,,Redacted Redacted Redacted Redacted,Redacted,Redacted,Redacted,Redacted,Redacted,Redacted,Redacted,5,HOU,HOU,ORR,ORR,No,27,04.11.2017,22.11.1989,28,22,31,38,27,36,25,155,285,219,22,0,31,0,38,0,27,0,0,0,0,22,ORR,372,1.02,11365,52,NA,NA
NA,NA,154,0,,Redacted Redacted Redacted Redacted,Redacted,Redacted,Redacted,Redacted,Redacted,Redacted,Redacted,5,SNA,HLG,ORR,ORR,No,0,25.01.2015,01.07.2013,0,0,0,0,0,154,0,0,0,0,0,0,0,0,0,0,0,0,0,0,0,0,,0,0,0,0,NA,NA
NA,NA,154,0,,Redacted Redacted Redacted Redacted,Redacted,Redacted,Redacted,Redacted,Redacted,Redacted,Redacted,5,SNA,HLG,ORR,ORR,No,40,04.11.2017,15.09.2014,40,37,39,49,29,0,48,273,480,328,37,0,39,0,49,0,29,0,0,0,0,37,,372,1.02,14177,61,NA,NA
21.3328,-157.929051,146,0,,351 ELLIOTT ST. HONOLULU HI 96819,BOPHON,HONOLULU FEDERAL DETENTION CENTER,351 ELLIOTT ST.,HONOLULU,HONOLULU,HI,96819,9,SFR,HHW,BOP,BOP,No,27,04.11.2017,11.02.2001,33,30,26,26,33,31,29,198,231,181,10,20,7,18,3,23,4,30,15,3,2,10,BOP,372,1.02,9349,36,21.3328,-157.929051
33.0442,-111.377,144,33.0442,,1155 NORTH PINAL PARKWAY FLORENCE AZ 85132,CCADCAZ,CCA CENTRAL ARIZONA DETENTION CENTER,1155 NORTH PINAL PARKWAY,FLORENCE,PINAL,AZ,85132,9,PHO,FLO,USMS IGA,USMS IGA,Yes,0,07.09.2016,08.01.1998,0,0,0,0,32,112,0,0,9,359,0,0,0,0,0,0,21,11,0,0,0,0,CCA,0,0,0,0,33.042946,-111.379103
35.408723,-89.547909,141,0,,6299 FINDE NAIFEH DRIVE MASON TN 38049,TNWESDF,WESTERN TENNESSEE DETENTION FACILITY,6299 FINDE NAIFEH DRIVE,MASON,TIPTON,TN,38049,6,NOL,MEM,USMS IGA,USMS IGA,Yes,6,04.11.2017,02.10.1996,31,5,78,3,6,49,191,1367,495,455,3,2,73,5,1,3,3,3,0,1,1,3,CCA,354,0.97,28521,190,35.408723,-89.547909
NA,NA,140,0,,Redacted Redacted Redacted Redacted,Redacted,Redacted,Redacted,Redacted,Redacted,Redacted,Redacted,7,CHI,CHI,ORR,ORR,No,26,04.11.2017,07.06.2013,33,25,40,35,14,26,37,286,392,117,25,0,40,0,35,0,14,0,0,0,0,25,,372,1.02,14564,78,NA,NA
NA,NA,138,0,,Redacted Redacted Redacted Redacted,Redacted,Redacted,Redacted,Redacted,Redacted,Redacted,Redacted,7,CHI,CHI,ORR,ORR,No,30,04.11.2017,22.06.2011,30,29,25,27,21,36,31,150,212,123,29,0,25,0,27,0,20,1,0,0,0,29,,372,1.02,9143,51,NA,NA
33.470625,-112.073702,136,0,,2035 NORTH CENTRAL AVENUE PHOENIX AZ 85004,PHOHOLD,PHOENIX DISTRICT OFFICE,2035 NORTH CENTRAL AVENUE,PHOENIX,MARICOPA,AZ,85004,9,PHO,PHO,Other,HOLD,Yes,38,04.11.2017,09.12.1997,59,30,29,42,19,16,1362,14780,17861,11661,27,3,26,3,38,4,13,6,1,0,1,27,FEDERAL,369,1.01,10584,130,33.470625,-112.073702
27.2479,-98.1268,136,27.2479,,901 COUNTY ROAD 201 FALFURRIAS TX 78355,BROKSTX,BROOKS COUNTY DETENTION CENTER,901 COUNTY ROAD 201,FALFURRIAS,BROOKS,TX,78355,5,SNA,PIC,USMS IGA,USMS IGA,Yes,41,04.11.2017,03.07.2005,51,37,32,23,1,43,61,1612,1343,116,36,2,28,4,20,3,1,0,0,0,1,36,GEO,225,0.62,11835,99,27.246853,-98.124549
32.847072,-80.014287,134,0,,3841 LEEDS AVENUE NORTH CHARLESTON SC 29405,CHARLSC,CHARLESTON COUNTY DETENTION CENTER,3841 LEEDS AVENUE,NORTH CHARLESTON,CHARLESTON,SC,29405,4,ATL,CHL,USMS IGA,USMS IGA,Yes,7,04.11.2017,31.10.1997,47,23,83,9,9,10,393,2662,921,954,8,15,64,19,1,8,0,9,5,6,4,8,COUNTY (SHERIFF),366,1,30348,269,32.847072,-80.014287
31.5493,-97.0814,132,31.5493,,3101 MARLIN HWY WACO TX 76705,JHRWLTX,JACK HARWELL DETENTION CENTER,3101 MARLIN HWY,WACO,MCLENNAN,TX,76705,5,SNA,WCT,USMS IGA,USMS IGA,Yes,0,04.11.2017,28.04.2011,6,2,1,0,0,129,16,172,98,101,0,1,0,1,0,0,0,0,0,1,0,0,CEC,202,0.55,394,9,31.549277,-97.077623
NA,NA,126,0,,Redacted Redacted Redacted Redacted,Redacted,Redacted,Redacted,Redacted,Redacted,Redacted,Redacted,5,HOU,HOU,ORR,ORR,No,22,04.11.2017,08.04.2009,24,23,24,27,26,26,24,48,48,48,23,0,24,0,27,0,26,0,0,0,0,23,ORR,372,1.02,8882,31,NA,NA
32.568134,-116.996883,122,0,,2351 OTAY MESA DRIVE CALIPATRIA CA 92154,QLTYSCA,QUALITY SUITES,2351 OTAY MESA DRIVE,CALIPATRIA,SAN DIEGO,CA,92154,9,SND,SND,Other,Other,Yes,69,04.11.2017,17.03.2014,120,74,22,17,6,3,1146,7993,6170,2267,74,0,22,0,17,0,6,0,0,0,0,74,HOTEL,372,1.02,7996,169,32.568134,-116.996883
NA,NA,121,0,,Redacted Redacted Redacted Redacted,Redacted,Redacted,Redacted,Redacted,Redacted,Redacted,Redacted,4,WAS,WAS,ORR,ORR,No,31,04.11.2017,18.06.2009,31,28,25,24,25,19,59,102,54,87,24,5,22,3,23,1,23,1,2,2,1,24,COUNTY,372,1.02,9081,29,NA,NA
30.622376,-92.781593,120,0,,7340 HIGHWAY 26 WEST OBERLIN LA 70655,APPSCLA,ALLEN PARISH PUBLIC SAFETY COMPLEX,7340 HIGHWAY 26 WEST,OBERLIN,ALLEN,LA,70655,5,NOL,OAK,IGSA,IGSA,Yes,55,04.11.2017,18.05.2016,56,52,50,18,0,0,48,309,129,0,52,0,48,2,17,1,0,0,0,0,0,52,COUNTY,372,1.02,18385,60,30.622376,-92.781593
31.805626,-91.395017,119,0,,8606 HWY 65 WATERPROOF LA 71375,TENSALA,TENSAS PARISH DETENTION CENTER,8606 HWY 65,WATERPROOF,TENSAS,LA,71375,5,NOL,OAK,IGSA,IGSA,Yes,0,01.03.2016,11.12.1995,0,0,0,13,49,57,0,0,229,1323,0,0,0,0,1,12,12,38,0,0,0,0,LASALLE CORRECTIONS,0,0,0,0,31.805626,-91.395017
NA,NA,119,0,,Redacted Redacted Redacted Redacted,Redacted,Redacted,Redacted,Redacted,Redacted,Redacted,Redacted,5,SNA,HLG,ORR,ORR,No,21,04.11.2017,01.06.2013,23,22,17,24,24,32,22,162,231,255,22,0,17,0,24,0,24,0,0,0,0,22,,372,1.02,6036,28,NA,NA
46.497911,-84.345852,118,0,,325 COURT STREET SAULT SAINTE MARIE MI 49783,CHIPPMI,CHIPPEWA COUNTY SSM,325 COURT STREET,SAULT SAINTE MARIE,CHIPPEWA,MI,49783,6,DET,DET,IGSA,IGSA,Yes,41,04.11.2017,30.09.1991,45,43,28,18,9,20,54,194,65,45,19,24,15,13,6,11,1,8,14,4,6,19,COUNTY (SHERIFF),372,1.02,10126,53,46.497911,-84.345852
NA,NA,116,0,,Redacted Redacted Redacted Redacted,Redacted,Redacted,Redacted,Redacted,Redacted,Redacted,Redacted,5,SNA,,ORR,ORR,No,26,04.11.2017,01.05.2015,39,34,29,46,7,0,31,276,498,103,34,0,29,0,46,0,7,0,0,0,0,34,,372,1.02,10653,57,NA,NA
NA,NA,115,0,,Redacted Redacted Redacted Redacted,Redacted,Redacted,Redacted,Redacted,Redacted,Redacted,Redacted,10,DAL,OKC,ORR,ORR,No,0,20.09.2016,14.06.2014,0,0,0,1,0,114,0,0,0,1,0,0,0,0,1,0,0,0,0,0,0,0,,0,0,0,0,NA,NA
NA,NA,114,0,,Redacted Redacted Redacted Redacted,Redacted,Redacted,Redacted,Redacted,Redacted,Redacted,Redacted,5,HOU,HOU,ORR,ORR,No,26,04.11.2017,16.05.2014,30,25,27,35,24,3,22,200,359,289,25,0,27,0,35,0,24,0,0,0,0,25,,372,1.02,9817,46,NA,NA
41.154752,-77.337047,112,0,,419 SHOEMAKER ROAD LOCK HAVEN PA 17745,CLINTPA,CLINTON COUNTY CORRECTIONAL FACILITY,419 SHOEMAKER ROAD,LOCK HAVEN,CLINTON,PA,17745,3,PHI,ALW,USMS IGA,USMS IGA,Yes,23,04.11.2017,21.04.2001,43,25,50,12,11,14,160,986,823,751,1,24,10,40,0,12,0,10,21,3,0,1,COUNTY (CORRECTIONS),372,1.02,18256,87,41.154752,-77.337047
39.642682,-94.046435,110,0,,280 WEST MAIN STREET KINGSTON MO 64650,CALDWMO,CALDWELL COUNTY DETENTION CENTER,280 WEST MAIN STREET,KINGSTON,CALDWELL,MO,64650,8,CHI,KAN,IGSA,IGSA,Yes,20,04.11.2017,19.01.2004,25,22,20,21,24,23,19,184,206,326,9,13,10,10,6,15,3,21,4,1,8,9,COUNTY (SHERIFF),372,1.02,7242,32,39.642682,-94.046435
NA,NA,107,0,,Redacted Redacted Redacted Redacted,Redacted,Redacted,Redacted,Redacted,Redacted,Redacted,Redacted,2,NYC,VRK,ORR,ORR,No,21,04.11.2017,24.02.2014,30,23,29,32,12,11,37,152,206,127,22,1,29,0,32,0,12,0,0,1,0,22,,372,1.02,10755,44,NA,NA
NA,NA,106,0,,Redacted Redacted Redacted Redacted,Redacted,Redacted,Redacted,Redacted,Redacted,Redacted,Redacted,1,BOS,BOS,ORR,ORR,No,21,04.11.2017,12.01.2005,21,21,20,22,22,21,7,9,6,21,21,0,20,0,22,0,22,0,0,0,0,21,ORR,372,1.02,7168,24,NA,NA
28.8831,-97.9114,103,28.8831,,810 COMMERCE STREET KARNES CITY TX 78118,KARNETX,KARNES COUNTY CORRECTIONAL CENTER,810 COMMERCE STREET,KARNES CITY,KARNES,TX,78118,5,SNA,SNA,USMS IGA,USMS IGA,Yes,0,24.08.2017,13.01.1998,0,0,42,20,0,41,69,301,288,2,0,0,31,11,12,8,0,0,0,0,0,0,GEO,328,0.9,15283,195,28.883301,-97.909196
38.7879,-104.779,99,38.7879,,2739 EAST LAS VEGAS COLORADO SPRINGS CO 80906,ELPASCO,EL PASO COUNTY CRIMINAL JUSTICE CENTER,2739 EAST LAS VEGAS,COLORADO SPRINGS,EL PASO,CO,80906,10,DEN,DEN,IGSA,IGSA,Yes,0,02.11.2017,18.12.1990,3,1,1,6,27,64,12,93,228,951,0,0,0,1,1,5,10,17,0,0,0,0,COUNTY (SHERIFF),126,0.35,292,13,38.787837,-104.776715
42.7516,-73.8162,99,42.7516,,840 ALBANY SHAKER ROAD ALBANY NY 12211,ALBCONY,ALBANY COUNTY JAIL,840 ALBANY SHAKER ROAD,ALBANY,KINGS,NY,12211,2,BUF,ALB,USMS IGA,USMS IGA,Yes,18,04.11.2017,13.07.1988,20,17,28,29,9,16,75,409,391,219,12,6,24,5,27,3,6,3,3,1,1,12,COUNTY (SHERIFF),372,1.02,10390,60,42.745125,-73.81586
NA,NA,99,0,,Redacted Redacted Redacted Redacted,Redacted,Redacted,Redacted,Redacted,Redacted,Redacted,Redacted,9,SEA,SEA,ORR,ORR,No,25,04.11.2017,12.05.2009,29,27,25,19,15,13,23,33,29,28,27,0,24,0,17,2,12,4,0,0,0,27,ORR,372,1.02,8961,28,NA,NA
NA,NA,99,0,,Redacted Redacted Redacted Redacted,Redacted,Redacted,Redacted,Redacted,Redacted,Redacted,Redacted,5,ELP,EPC,ORR,ORR,No,0,27.12.2016,23.09.2005,0,0,1,36,21,41,0,1,398,306,0,0,1,0,36,0,21,0,0,0,0,0,ORR,88,0.24,399,7,NA,NA
32.016469,-106.41112,95,0,,10 MCGREGOR RANGE ROAD CHAPARRAL NM 88081,OTROPNM,OTERO COUNTY PRISON FACILITY,10 MCGREGOR RANGE ROAD,CHAPARRAL,DONA ANA,NM,88081,10,ELP,EPC,USMS IGA,USMS IGA,Yes,0,20.09.2017,30.11.2005,0,0,80,0,0,15,126,1247,2,4,0,0,63,17,0,0,0,0,0,0,0,0,M&TC,262,0.72,29252,200,32.016469,-106.41112
38.9097,-91.5349,94,38.9097,,211 EAST THIRD STREET MONTGOMERY CITY MO 63361,MONTGMO,MONTGOMERY COUNTY JAIL,211 EAST THIRD STREET,MONTGOMERY CITY,MONTGOMERY,MO,63361,8,CHI,STL,IGSA,IGSA,Yes,17,04.11.2017,26.06.1998,22,20,21,18,14,21,33,165,170,252,8,11,7,14,5,14,3,11,5,5,1,8,COUNTY (SHERIFF),372,1.02,7594,44,38.978999,-91.504742
NA,NA,92,0,,Redacted Redacted Redacted Redacted,Redacted,Redacted,Redacted,Redacted,Redacted,Redacted,Redacted,9,SFR,SFR,ORR,ORR,No,17,04.11.2017,18.09.1998,19,18,18,23,15,18,21,142,220,110,18,0,18,0,23,0,15,0,0,0,0,18,ORR,372,1.02,6713,30,NA,NA
NA,NA,89,0,,Redacted Redacted Redacted Redacted,Redacted,Redacted,Redacted,Redacted,Redacted,Redacted,Redacted,5,SNA,SNA,ORR,ORR,No,16,04.11.2017,08.05.2013,21,18,19,24,13,15,16,95,133,105,18,0,19,0,24,0,13,0,0,0,0,18,COUNTY,372,1.02,6989,29,NA,NA
41.727683,-111.836178,87,0,,50 WEST 200 NORTH LOGAN UT 84321,CACHEUT,CACHE COUNTY JAIL,50 WEST 200 NORTH,LOGAN,CACHE,UT,84321,10,SLC,SLC,USMS IGA,USMS IGA,Yes,44,04.11.2017,12.06.1997,63,51,36,0,0,0,204,1480,0,0,11,40,6,30,0,0,0,0,23,12,5,11,COUNTY,297,0.81,13164,72,41.727683,-111.836178
NA,NA,84,0,,Redacted Redacted Redacted Redacted,Redacted,Redacted,Redacted,Redacted,Redacted,Redacted,Redacted,5,SNA,HLG,ORR,ORR,No,22,04.11.2017,29.08.2014,28,23,18,29,14,0,20,176,328,185,23,0,18,0,29,0,14,0,0,0,0,23,,372,1.02,6595,36,NA,NA
NA,NA,84,0,,Redacted Redacted Redacted Redacted,Redacted,Redacted,Redacted,Redacted,Redacted,Redacted,Redacted,5,ELP,,ORR,ORR,No,43,04.11.2017,22.06.2016,44,42,36,6,0,0,45,300,88,0,42,0,36,0,6,0,0,0,0,0,0,42,,372,1.02,13081,73,NA,NA
41.65433,-93.585344,82,0,,1985 NE 51ST PLACE DES MOINES IA 50313,POLKJIA,POLK COUNTY JAIL,1985 NE 51ST PLACE,DES MOINES,POLK,IA,50313,8,SPM,OMA,USMS IGA,USMS IGA,Yes,28,04.11.2017,21.04.1992,53,41,23,3,1,14,58,368,96,41,11,30,6,17,0,3,0,1,11,9,10,11,COUNTY (SHERIFF),372,1.02,8553,47,41.65433,-93.585344
NA,NA,81,0,,Redacted Redacted Redacted Redacted,Redacted,Redacted,Redacted,Redacted,Redacted,Redacted,Redacted,2,NYC,VRK,ORR,ORR,No,23,04.11.2017,23.05.2014,25,19,20,27,10,5,19,137,182,146,19,0,20,0,27,0,10,0,0,0,0,19,,372,1.02,7409,43,NA,NA
45.608888,-121.203622,78,0,,211 WEBBER ROAD THE DALLES OR 97058,NORCOOR,NORTHERN OREGON CORRECTIONAL FACILITY,211 WEBBER ROAD,THE DALLES,WASCO,OR,97058,9,SEA,POO,IGSA,IGSA,Yes,25,04.11.2017,09.01.1987,30,26,23,14,7,8,158,461,281,210,0,26,3,20,0,13,0,7,19,4,3,0,COUNTY (JAILER),372,1.02,8452,48,45.608888,-121.203622
39.5741,-119.811,77,39.5741,,911 PARR BOULEVARD RENO NV 89512,WASHONV,WASHOE COUNTY JAIL,911 PARR BOULEVARD,RENO,WASHOE,NV,89512,9,SLC,REN,USMS IGA,USMS IGA,Yes,16,04.11.2017,12.08.1993,23,18,14,14,14,17,63,542,461,397,1,17,1,13,0,13,0,14,12,2,3,1,COUNTY (SHERIFF),372,1.02,4951,51,39.572529,-119.809926
NA,NA,76,0,,Redacted Redacted Redacted Redacted,Redacted,Redacted,Redacted,Redacted,Redacted,Redacted,Redacted,9,SEA,,ORR,ORR,No,31,04.11.2017,21.12.2015,34,30,25,21,0,0,34,185,269,0,30,0,25,0,21,0,0,0,0,0,0,30,,372,1.02,9120,51,NA,NA
NA,NA,74,0,,Redacted Redacted Redacted Redacted,Redacted,Redacted,Redacted,Redacted,Redacted,Redacted,Redacted,9,PHO,PHO,ORR,ORR,No,25,04.11.2017,05.08.2011,25,22,17,21,10,4,23,143,241,124,22,0,17,0,21,0,10,0,0,0,0,22,,372,1.02,6158,28,NA,NA
32.828551,-97.099661,67,0,,1102 W. EULESS BLVD. EULESS TX 76040,EULESTX,EULESS CITY JAIL,1102 W. EULESS BLVD.,EULESS,TARRANT,TX,76040,5,DAL,DAL,IGSA,IGSA,Yes,0,04.11.2017,27.08.1988,23,6,13,18,13,17,180,3848,4739,3198,2,4,4,10,4,14,3,10,2,1,1,2,CITY,280,0.77,4777,73,32.828551,-97.099661
35.622382,-95.974093,67,0,,314 W. 7TH STREET OKMULGEE OK 74447,OKMULOK,OKMULGEE COUNTY JAIL,314 W. 7TH STREET,OKMULGEE,OKMULGEE,OK,74447,10,DAL,,USMS IGA,USMS IGA,Yes,62,04.11.2017,15.08.2017,75,60,7,0,0,0,97,179,0,0,23,38,2,5,0,0,0,0,17,7,13,23,,54,0.15,2419,71,35.622382,-95.974093
NA,NA,67,0,,Redacted Redacted Redacted Redacted,Redacted,Redacted,Redacted,Redacted,Redacted,Redacted,Redacted,9,SFR,SFR,ORR,ORR,No,23,04.11.2017,24.06.2008,24,21,19,17,8,2,46,94,67,55,15,5,15,4,11,6,2,6,3,1,0,16,COUNTY,372,1.02,7106,26,NA,NA
NA,NA,66,0,,Redacted Redacted Redacted Redacted,Redacted,Redacted,Redacted,Redacted,Redacted,Redacted,Redacted,9,SND,SND,ORR,ORR,No,0,20.03.2017,13.07.1998,0,0,1,20,29,16,0,13,182,284,0,0,1,0,20,0,29,0,0,0,0,0,ORR,171,0.47,389,6,NA,NA
32.841156,-97.132054,64,0,,2121 L DON DODSON DRIVE BEDFORD TX 76021,BEDCITX,BEDFORD MUNICIPAL DETENTION CENTER,2121 L DON DODSON DRIVE,BEDFORD,TARRANT,TX,76021,5,DAL,DAL,IGSA,IGSA,Yes,0,04.11.2017,06.07.1999,27,7,12,16,11,18,175,3724,4344,2828,3,4,3,9,3,12,2,9,1,1,1,3,CITY,225,0.62,4446,56,32.841156,-97.132054
40.489338,-78.702639,64,0,,425 MANOR DRIVE EBENSBURG PA 15931,CAMBRPA,CAMBRIA COUNTY JAIL,425 MANOR DRIVE,EBENSBURG,CAMBRIA,PA,15931,3,PHI,YRK,USMS IGA,USMS IGA,Yes,29,04.11.2017,19.05.1987,50,33,25,4,0,2,154,875,450,0,18,15,15,10,1,4,0,0,10,2,4,18,COUNTY (PRISON),342,0.94,9032,80,40.489338,-78.702639
30.832093,-92.638259,63,0,,2105 E. WHATLEY RD. OAKDALE LA 71463,BOPOAD,OAKDALE FEDERAL DETENTION CENTER,2105 E. WHATLEY RD.,OAKDALE,ALLEN,LA,71463,5,NOL,OAK,BOP,BOP,No,0,09.07.2015,09.04.1990,0,0,0,0,0,63,0,4,4,13,0,0,0,0,0,0,0,0,0,0,0,0,BOP,0,0,0,0,30.832093,-92.638259
NA,NA,61,0,,Redacted Redacted Redacted Redacted,Redacted,Redacted,Redacted,Redacted,Redacted,Redacted,Redacted,9,PHO,PHO,ORR,ORR,No,9,04.11.2017,22.04.2012,9,9,8,14,15,15,7,9,99,112,9,0,8,0,14,0,15,0,0,0,0,9,,372,1.02,2892,10,NA,NA
29.3732,-100.848,60,29.3732,,253 FARM TO MARKET 2523 DEL RIO TX 78840,VALVETX,VAL VERDE CORRECTIONAL FACILITY,253 FARM TO MARKET 2523,DEL RIO,VAL VERDE,TX,78840,5,SNA,DLR,USMS IGA,USMS IGA,Yes,1,04.11.2017,10.02.1999,30,6,6,9,12,27,327,3042,4345,4271,2,4,2,4,3,6,3,10,0,0,3,2,GEO,312,0.85,2352,82,29.771542,-100.612248
NA,NA,60,0,,Redacted Redacted Redacted Redacted,Redacted,Redacted,Redacted,Redacted,Redacted,Redacted,Redacted,9,SFR,SFR,ORR,ORR,No,9,04.11.2017,21.10.2009,15,10,14,8,15,13,25,69,44,85,9,2,10,4,7,1,13,2,2,0,0,9,ORR,372,1.02,5211,18,NA,NA
NA,NA,60,0,,Redacted Redacted Redacted Redacted,Redacted,Redacted,Redacted,Redacted,Redacted,Redacted,Redacted,7,CHI,CHI,ORR,ORR,No,12,04.11.2017,03.11.1995,15,13,13,7,13,14,25,54,45,39,11,2,12,1,7,0,12,1,1,0,1,11,ORR,372,1.02,4859,18,NA,NA
NA,NA,59,0,,Redacted Redacted Redacted Redacted,Redacted,Redacted,Redacted,Redacted,Redacted,Redacted,Redacted,2,NYC,VRK,ORR,ORR,No,33,04.11.2017,03.06.2014,36,32,6,0,18,3,34,59,0,202,31,1,6,0,0,0,18,0,1,0,0,31,,106,0.29,2168,33,NA,NA
44.7202,-73.4672,57,44.7202,,25 MCCARTHY DRIVE PLATTSBURGH NY 12901,CLICONY,CLINTON COUNTY JAIL,25 MCCARTHY DRIVE,PLATTSBURGH,CLINTON,NY,12901,2,BUF,CHM,USMS IGA,USMS IGA,Yes,11,04.11.2017,16.10.1987,21,15,20,14,3,5,75,384,225,146,12,3,17,2,12,3,1,2,0,0,3,12,COUNTY (SHERIFF),372,1.02,7146,34,44.719159,-73.468618
NA,NA,57,0,,Redacted Redacted Redacted Redacted,Redacted,Redacted,Redacted,Redacted,Redacted,Redacted,Redacted,9,SEA,SEA,ORR,ORR,No,7,04.11.2017,30.09.2003,9,8,12,8,17,12,20,61,29,61,8,0,11,1,7,1,16,1,0,0,0,8,ORR,372,1.02,4387,21,NA,NA
NA,NA,57,0,,Redacted Redacted Redacted Redacted,Redacted,Redacted,Redacted,Redacted,Redacted,Redacted,Redacted,9,LOS,LOS,ORR,ORR,No,0,06.08.2014,06.06.2014,0,0,0,0,0,57,0,0,1,0,0,0,0,0,0,0,0,0,0,0,0,0,,0,0,0,0,NA,NA
37.019872,-93.205169,56,0,,110 WEST ELM OZARK MO 65721,CHRISMO,CHRISTIAN COUNTY JAIL,110 WEST ELM,OZARK,CHRISTIAN,MO,65721,8,CHI,SPG,IGSA,IGSA,Yes,13,04.11.2017,03.01.2004,16,11,14,13,11,7,16,147,122,113,4,8,4,10,4,9,0,11,2,2,5,4,COUNTY (SHERIFF),372,1.02,4949,22,37.019872,-93.205169
NA,NA,56,0,,Redacted Redacted Redacted Redacted,Redacted,Redacted,Redacted,Redacted,Redacted,Redacted,Redacted,7,CHI,CHI,ORR,ORR,No,12,04.11.2017,29.01.2013,16,13,11,12,7,13,16,72,98,65,13,0,11,0,12,0,7,0,0,0,0,13,,372,1.02,4159,24,NA,NA
NA,NA,56,0,,Redacted Redacted Redacted Redacted,Redacted,Redacted,Redacted,Redacted,Redacted,Redacted,Redacted,9,SEA,POO,ORR,ORR,No,3,04.11.2017,09.05.2013,7,5,8,8,19,16,16,48,40,95,5,0,7,0,7,1,17,2,0,0,0,5,,333,0.91,2752,16,NA,NA
41.284248,-95.863942,55,0,,1400 BIG LAKE ROAD COUNCIL BLUFFS IA 51501,POTTAIA,POTTAWATTAMIE COUNTY JAIL,1400 BIG LAKE ROAD,COUNCIL BLUFFS,POTTAWATTAMIE,IA,51501,8,SPM,OMA,USMS IGA,USMS IGA,Yes,8,04.11.2017,29.11.1995,12,10,15,12,6,12,15,113,47,51,0,10,5,10,10,2,0,6,4,3,3,0,COUNTY (SHERIFF),372,1.02,5405,24,41.284248,-95.863942
NA,NA,55,0,,Redacted Redacted Redacted Redacted,Redacted,Redacted,Redacted,Redacted,Redacted,Redacted,Redacted,2,NYC,NYC,ORR,ORR,No,16,04.11.2017,14.05.2014,17,15,15,15,7,3,18,116,193,84,15,0,15,0,15,0,7,0,0,0,0,15,,372,1.02,5444,24,NA,NA
26.151929,-97.350906,54,0,,27991 BUENA VISTA BLVD LOS FRESNOS TX 78566,RGS,RIO GRANDE VALLEY STAGING,27991 BUENA VISTA BLVD,LOS FRESNOS,CAMERON,TX,78566,5,SNA,PIC,Other,STAGING,Yes,0,03.08.2017,04.06.2010,0,0,0,0,0,54,3,14,149,42,0,0,0,0,0,0,0,0,0,0,0,0,,12,0.03,13,2,26.151929,-97.350906
41.0112,-95.8831,53,41.0112,,336 MAIN STREET PLATTSMOUTH NE 68048,CASSCNE,CASS COUNTY JAIL,336 MAIN STREET,PLATTSMOUTH,CASS,NE,68048,8,SPM,OMA,USMS IGA,USMS IGA,Yes,11,04.11.2017,10.11.1998,13,12,13,6,5,17,12,166,40,61,2,10,1,11,1,5,0,5,5,3,2,2,COUNTY (SHERIFF),372,1.02,4711,31,41.011089,-95.882942
18.360096,-66.078484,51,0,,HWY 28 INTSECT OF ROAD 165 SAN JUAN PR 939,BOPGUA,GUAYNABO MDC (SAN JUAN),HWY 28 INTSECT OF ROAD 165,SAN JUAN,SAN JUAN,PR,939,1,MIA,SAJ,BOP,BOP,No,0,24.09.2017,21.06.1993,0,0,12,10,14,15,54,222,173,188,0,0,1,11,0,10,1,13,0,0,0,0,BOP,359,0.98,4467,25,18.360096,-66.078484
NA,NA,51,0,,Redacted Redacted Redacted Redacted,Redacted,Redacted,Redacted,Redacted,Redacted,Redacted,Redacted,4,WAS,WAS,ORR,ORR,No,1,04.11.2017,26.01.1989,1,0,2,14,19,16,0,2,50,36,0,0,2,0,14,0,18,1,0,0,0,0,ORR,87,0.24,902,15,NA,NA
NA,NA,51,0,,Redacted Redacted Redacted Redacted,Redacted,Redacted,Redacted,Redacted,Redacted,Redacted,Redacted,5,DAL,DAL,ORR,ORR,No,14,04.11.2017,24.04.2013,15,14,10,12,6,9,15,97,131,68,14,0,10,0,12,0,6,0,0,0,0,14,,372,1.02,3807,19,NA,NA
NA,NA,51,0,,Redacted Redacted Redacted Redacted,Redacted,Redacted,Redacted,Redacted,Redacted,Redacted,Redacted,9,PHO,,ORR,ORR,No,52,04.11.2017,28.06.2017,52,44,7,0,0,0,31,64,0,0,44,0,7,0,0,0,0,0,0,0,0,44,,102,0.28,2512,39,NA,NA
34.081977,-80.976258,50,0,,7901 FARROW ROAD COLUMBIA SC 29203,COLCASC,COLUMBIA CARE CENTER,7901 FARROW ROAD,COLUMBIA,RICHLAND,SC,29203,4,ATL,CHL,Other,HOSPITAL,No,19,04.11.2017,05.03.1999,20,18,14,7,10,1,53,117,54,58,5,13,4,10,2,5,2,8,9,2,2,5,HOSPITAL,372,1.02,4960,27,34.081977,-80.976258
NA,NA,50,0,,Redacted Redacted Redacted Redacted,Redacted,Redacted,Redacted,Redacted,Redacted,Redacted,Redacted,5,HOU,HOU,ORR,ORR,No,0,31.03.2016,26.07.2005,0,0,0,11,15,24,0,0,81,122,0,0,0,0,11,0,15,0,0,0,0,0,ORR,0,0,0,0,NA,NA
44.9567,-93.086,49,44.9567,,425 GROVE STREET ST. PAUL MN 55101,RAADCMN,RAMSEY COUNTY ADULT DETENTION CENTER,425 GROVE STREET,ST. PAUL,RAMSEY,MN,55101,8,SPM,SPM,USMS IGA,USMS IGA,Yes,2,04.11.2017,05.04.1997,6,2,4,11,10,22,20,115,157,134,1,2,1,3,2,9,1,9,1,1,0,1,COUNTY (SHERIFF),353,0.97,1405,14,44.955742,-93.085504
NA,NA,49,0,,Redacted Redacted Redacted Redacted,Redacted,Redacted,Redacted,Redacted,Redacted,Redacted,Redacted,2,NYC,NYC,ORR,ORR,No,5,04.11.2017,08.05.2014,7,6,10,17,10,6,8,95,230,102,6,0,10,0,17,0,10,0,0,0,0,6,,372,1.02,3731,24,NA,NA
NA,NA,49,0,,Redacted Redacted Redacted Redacted,Redacted,Redacted,Redacted,Redacted,Redacted,Redacted,Redacted,9,SEA,POO,ORR,ORR,No,9,04.11.2017,04.06.2013,11,10,4,13,7,15,13,17,64,39,10,0,4,0,13,0,7,0,0,0,0,10,,234,0.64,1285,13,NA,NA
46.603304,-120.508152,48,0,,111 NORTH FRONT STREET YAKIMA WA 98901,YIKIMWA,YAKIMA COUNTY DEPARTMENT OF CORRECTIONS,111 NORTH FRONT STREET,YAKIMA,YAKIMA,WA,98901,9,SEA,YAK,USMS IGA,USMS IGA,Yes,2,04.11.2017,31.05.1996,20,6,25,8,7,2,416,1501,327,718,2,4,21,4,0,8,0,7,1,1,2,2,COUNTY (CORRECTIONS),347,0.95,8995,158,46.603304,-120.508152
31.397767,-103.517999,48,0,,250 EAST PALMER ROAD PECOS TX 79772,PCSHOLD,PECOS HOLD ROOM,250 EAST PALMER ROAD,PECOS,REEVES,TX,79772,5,ELP,PCS,Other,HOLD,Yes,0,02.10.2017,10.03.2010,1,0,0,18,17,13,197,4237,5031,5491,0,0,0,0,0,18,0,17,0,0,0,0,,124,0.34,130,10,31.397767,-103.517999
42.2056,-78.0097,48,42.2056,,4884 STATE ROUTE 19 BELMONT NY 14813,ALLEGNY,ALLEGANY COUNTY JAIL,4884 STATE ROUTE 19,BELMONT,ALLEGANY,NY,14813,2,BUF,BUF,IGSA,IGSA,Yes,7,04.11.2017,05.11.1987,9,8,11,12,8,9,21,114,96,75,6,3,8,4,9,3,3,5,1,2,0,6,COUNTY (SHERIFF),372,1.02,4128,19,42.207781,-78.01268
38.97103,-90.963708,48,0,,65 BUSINESS PARK DRIVE TROY MO 63379,LINCOMO,LINCOLN COUNTY DETENTION CENTER,65 BUSINESS PARK DRIVE,TROY,LINCOLN,MO,63379,8,CHI,STL,IGSA,IGSA,Yes,6,04.11.2017,28.02.2000,9,6,8,7,12,15,14,82,88,148,1,5,1,7,1,6,1,11,3,2,1,1,COUNTY (SHERIFF),351,0.96,2766,14,38.97103,-90.963708
NA,NA,48,0,,Redacted Redacted Redacted Redacted,Redacted,Redacted,Redacted,Redacted,Redacted,Redacted,Redacted,9,SEA,SEA,ORR,ORR,No,6,04.11.2017,21.10.2003,8,6,11,12,7,12,8,81,143,59,6,0,10,0,12,0,7,0,0,0,0,6,ORR,372,1.02,3892,21,NA,NA
13.444257,144.786297,46,0,,203 ASPINALL AVENUE HAGATNA GU 96910,GUDOCHG,DEPARTMENT OF CORRECTIONS HAGATNA,203 ASPINALL AVENUE,HAGATNA,GUAM,GU,96910,9,SFR,AGA,USMS IGA,USMS IGA,Yes,16,04.11.2017,21.05.2009,20,17,13,3,5,8,15,96,38,50,2,15,1,11,0,3,2,4,12,2,1,2,FEDERAL,372,1.02,4575,21,13.444257,144.786297
NA,NA,46,0,,Redacted Redacted Redacted Redacted,Redacted,Redacted,Redacted,Redacted,Redacted,Redacted,Redacted,9,PHO,PHO,ORR,ORR,No,8,04.11.2017,23.06.2014,9,7,12,17,8,2,9,102,199,135,7,0,12,0,17,0,8,0,0,0,0,7,,372,1.02,4515,22,NA,NA
NA,NA,45,0,,Redacted Redacted Redacted Redacted,Redacted,Redacted,Redacted,Redacted,Redacted,Redacted,Redacted,9,SEA,SEA,ORR,ORR,No,8,04.11.2017,14.10.1993,9,9,11,11,5,9,4,6,52,23,9,0,11,0,11,0,5,0,0,0,0,9,ORR,372,1.02,3908,12,NA,NA
NA,NA,45,0,,Redacted Redacted Redacted Redacted,Redacted,Redacted,Redacted,Redacted,Redacted,Redacted,Redacted,4,BAL,BAL,ORR,ORR,No,20,04.11.2017,19.05.2014,21,18,3,0,16,8,21,30,0,137,18,0,3,0,0,0,16,0,0,0,0,18,,94,0.26,1210,22,NA,NA
NA,NA,45,0,,Redacted Redacted Redacted Redacted,Redacted,Redacted,Redacted,Redacted,Redacted,Redacted,Redacted,7,CHI,CHI,ORR,ORR,No,9,04.11.2017,01.12.2010,11,10,8,9,5,13,13,37,37,17,10,0,8,0,9,0,5,0,0,0,0,10,,372,1.02,2779,15,NA,NA
47.935765,-97.055633,44,0,,1701 NORTH WASHINGTON ST GRAND FORKS ND 58206,GFCORND,GRAND FORKS COUNTY CORRECTIONAL FACILITY,1701 NORTH WASHINGTON ST,GRAND FORKS,GRAND FORKS,ND,58206,8,SPM,SPM,IGSA,IGSA,Yes,23,04.11.2017,17.02.1989,30,20,12,3,4,5,89,585,317,403,8,12,6,6,2,2,2,3,6,3,3,8,COUNTY (SHERIFF),356,0.98,4424,34,47.935765,-97.055633
NA,NA,44,0,,Redacted Redacted Redacted Redacted,Redacted,Redacted,Redacted,Redacted,Redacted,Redacted,Redacted,9,LOS,LOS,ORR,ORR,No,14,04.11.2017,13.08.2014,15,14,11,9,9,1,13,99,122,108,14,0,11,0,9,0,9,0,0,0,0,14,,372,1.02,3903,15,NA,NA
NA,NA,42,0,,Redacted Redacted Redacted Redacted,Redacted,Redacted,Redacted,Redacted,Redacted,Redacted,Redacted,9,PHO,,ORR,ORR,No,45,04.11.2017,19.07.2017,48,40,2,0,0,0,34,39,0,0,40,0,2,0,0,0,0,0,0,0,0,40,,81,0.22,658,40,NA,NA
43.648165,-95.587723,40,0,,1530 AIRPORT ROAD WORTHINGTON MN 56187,NOBLEMN,NOBLES COUNTY JAIL,1530 AIRPORT ROAD,WORTHINGTON,NICOLLET,MN,56187,8,SPM,SPM,IGSA,IGSA,Yes,27,04.11.2017,30.09.1997,29,25,12,1,1,1,70,206,158,122,4,21,2,10,0,1,0,1,18,2,1,4,COUNTY (SHERIFF),353,0.97,4220,34,43.648165,-95.587723
28.74837,-99.845425,40,0,,6901 N HIGHWAY 83 CRYSTAL CITY TX 78839,CRYCCTX,CRYSTAL CITY CORRECTIONAL CENTER,6901 N HIGHWAY 83,CRYSTAL CITY,ZAVALA,TX,78839,5,SNA,SNA,USMS IGA,USMS IGA,Yes,0,05.01.2014,20.12.1998,0,0,0,0,0,40,0,0,0,0,0,0,0,0,0,0,0,0,0,0,0,0,COUNTY,0,0,0,0,28.74837,-99.845425
NA,NA,40,0,,Redacted Redacted Redacted Redacted,Redacted,Redacted,Redacted,Redacted,Redacted,Redacted,Redacted,5,SNA,HLG,ORR,ORR,No,0,09.03.2016,07.07.2013,0,0,0,3,36,1,0,0,10,383,0,0,0,0,3,0,36,0,0,0,0,0,,0,0,0,0,NA,NA
34.29499,-83.824406,37,0,,622 MAIN STREET SOUTHWEST GAINESVILLE GA 30501,NGDCTGA,NORTH GEORGIA DETENTION CENTER,622 MAIN STREET SOUTHWEST,GAINESVILLE,HALL,GA,30501,11,ATL,ATL,IGSA,IGSA,Yes,0,23.03.2014,06.01.2009,0,0,0,0,0,37,0,0,0,0,0,0,0,0,0,0,0,0,0,0,0,0,CCA,0,0,0,0,34.29499,-83.824406
NA,NA,37,0,,Redacted Redacted Redacted Redacted,Redacted,Redacted,Redacted,Redacted,Redacted,Redacted,Redacted,4,WAS,WAS,ORR,ORR,No,6,04.11.2017,13.04.2005,6,6,6,9,8,8,5,6,7,7,6,0,6,0,9,0,8,0,0,0,0,6,ORR,372,1.02,2345,9,NA,NA
NA,NA,36,0,,Redacted Redacted Redacted Redacted,Redacted,Redacted,Redacted,Redacted,Redacted,Redacted,Redacted,5,HOU,HOU,ORR,ORR,No,0,06.04.2016,31.05.2014,0,0,0,11,17,8,0,0,93,124,0,0,0,0,11,0,17,0,0,0,0,0,,0,0,0,0,NA,NA
39.377503,-94.793517,34,0,,415 THIRD STREET PLATTE CITY MO 64079,PLATTMO,PLATTE COUNTY DETENTION CENTER,415 THIRD STREET,PLATTE CITY,PLATTE,MO,64079,8,CHI,KAN,IGSA,IGSA,Yes,21,04.11.2017,22.01.1992,21,17,16,1,0,0,27,263,139,56,9,8,4,12,0,1,0,0,3,2,3,9,COUNTY (SHERIFF),372,1.02,5779,24,39.377503,-94.793517
NA,NA,34,0,,Redacted Redacted Redacted Redacted,Redacted,Redacted,Redacted,Redacted,Redacted,Redacted,Redacted,2,NYC,VRK,ORR,ORR,No,6,04.11.2017,08.05.2014,10,8,13,9,3,1,10,125,109,33,8,0,13,0,9,0,3,0,0,0,0,8,,351,0.96,4768,35,NA,NA
NA,NA,34,0,,Redacted Redacted Redacted Redacted,Redacted,Redacted,Redacted,Redacted,Redacted,Redacted,Redacted,5,SNA,HLG,ORR,ORR,No,3,04.11.2017,26.06.2013,5,4,6,7,9,8,11,61,46,55,3,1,5,0,6,1,8,0,0,1,0,3,,372,1.02,2155,12,NA,NA
30.479048,-90.095151,33,0,,701 NORTH COLUMBIA STREET COVINGTON LA 70433,STTAMLA,SAINT TAMMANY PARISH JAIL,701 NORTH COLUMBIA STREET,COVINGTON,SAINT TAMMANY,LA,70433,5,NOL,NOL,IGSA,IGSA,Yes,8,04.11.2017,18.04.2012,24,11,9,4,4,5,244,1359,668,630,9,3,5,4,2,2,1,3,1,1,1,9,COUNTY (SHERIFF),368,1.01,3192,46,30.479048,-90.095151
37.511563,-98.824534,33,0,,701 SE STONE ROAD EL DORADO KS 67042,BUTLEKS,BUTLER COUNTY JAIL,701 SE STONE ROAD,EL DORADO,BUTLER,KS,67042,10,CHI,WIC,USMS IGA,USMS IGA,Yes,8,04.11.2017,30.05.2002,11,8,8,5,5,7,15,121,84,79,2,5,2,6,0,5,1,4,2,1,2,2,COUNTY (SHERIFF),372,1.02,2992,18,37.511563,-98.824534
43.137512,-115.672649,32,0,,2255 E. 8TH NORTH MOUNTAIN HOME ID 83647,ELMORID,ELMORE COUNTY JAIL,2255 E. 8TH NORTH,MOUNTAIN HOME,ELMORE,ID,83647,9,SLC,BOI,USMS IGA,USMS IGA,Yes,10,04.11.2017,15.06.2009,19,9,8,5,5,5,141,554,271,234,2,7,1,7,0,5,0,5,2,2,2,2,COUNTY (SHERIFF),372,1.02,2959,23,43.137512,-115.672649
31.793411,-106.369373,32,0,,8915 MONTANA AVE EL PASO TX 79925,ELPHOLD,EL PASO HOLD ROOM,8915 MONTANA AVE,EL PASO,EL PASO,TX,79925,5,ELP,EPC,Other,HOLD,Yes,13,04.11.2017,25.11.2014,56,15,10,6,1,0,336,16662,12915,2843,15,0,10,0,6,0,1,0,0,0,0,15,,371,1.02,3794,155,31.793411,-106.369373
26.126087,-81.765008,30,0,,3301 TAMIAMI TRAIL EAST NAPLES FL 34112,COLLIFL,COLLIER COUNTY NAPLES JAIL CENTER,3301 TAMIAMI TRAIL EAST,NAPLES,COLLIER,FL,34112,11,MIA,KRO,IGSA,IGSA,Yes,5,04.11.2017,17.11.1990,17,8,6,4,5,7,148,830,471,566,2,6,1,5,0,4,0,5,1,3,2,2,COUNTY (SHERIFF),362,0.99,2360,19,26.126087,-81.765008
NA,NA,30,0,,Redacted Redacted Redacted Redacted,Redacted,Redacted,Redacted,Redacted,Redacted,Redacted,Redacted,2,BUF,BUF,ORR,ORR,No,7,04.11.2017,31.05.2012,8,7,6,4,6,7,8,8,5,9,7,0,6,0,4,0,6,0,0,0,0,7,COUNTY,372,1.02,2053,8,NA,NA
39.046323,-95.664949,28,0,,501 SOUTHEAST 8TH AVENUE TOPEKA KS 66607,SHACOKS,SHAWNEE COUNTY DEPARTMENT OF CORRECTIONS,501 SOUTHEAST 8TH AVENUE,TOPEKA,SHAWNEE,KS,66607,10,CHI,KAN,IGSA,IGSA,Yes,15,04.11.2017,11.09.1998,20,16,8,3,0,1,21,86,39,8,2,15,2,7,0,3,0,0,7,3,5,2,COUNTY (CORRECTIONS),372,1.02,3009,29,39.046323,-95.664949
NA,NA,27,0,,Redacted Redacted Redacted Redacted,Redacted,Redacted,Redacted,Redacted,Redacted,Redacted,Redacted,9,SEA,POO,ORR,ORR,No,0,21.12.2015,28.01.2010,0,0,0,6,13,8,0,0,65,98,0,0,0,0,6,0,12,0,0,0,0,0,COUNTY,0,0,0,0,NA,NA
NA,NA,27,0,,Redacted Redacted Redacted Redacted,Redacted,Redacted,Redacted,Redacted,Redacted,Redacted,Redacted,2,NYC,NYC,ORR,ORR,No,8,04.11.2017,14.05.2014,8,7,4,8,6,2,6,39,99,72,6,1,4,0,8,0,6,0,1,0,0,6,,238,0.65,1561,12,NA,NA
33.750491,-118.296675,26,0,,300 N. LOS ANGELES ST. RM B-18 SAN PEDRO CA 90731,LOSHOLD,LOS ANGELES CUSTODY CASE,300 N. LOS ANGELES ST. RM B-18,SAN PEDRO,LOS ANGELES,CA,90731,9,LOS,LOS,Other,HOLD,Yes,1,04.11.2017,01.01.1983,14,4,4,3,4,11,2962,13865,14167,15351,1,3,1,3,1,3,2,3,2,0,1,1,FEDERAL,372,1.02,1433,79,33.750491,-118.296675
36.156808,-86.7719,26,0,,448 2ND AVENUE NASHVILLE TN 37210,DAVIDTN,DAVIDSON COUNTY SHERIFF,448 2ND AVENUE,NASHVILLE,DAVIDSON,TN,37210,6,NOL,NOL,IGSA,IGSA,Yes,3,04.11.2017,21.05.1997,18,8,5,4,4,5,128,627,533,578,3,5,1,4,0,4,0,4,1,2,2,3,COUNTY (SHERIFF),355,0.97,1740,16,36.156808,-86.7719
41.975308,-91.670108,26,0,,53 3RD AVENUE BRIDGE CEDAR RAPIDS IA 52401,LINNJIA,LINN COUNTY JAIL,53 3RD AVENUE BRIDGE,CEDAR RAPIDS,LINN,IA,52401,8,SPM,OMA,USMS IGA,USMS IGA,Yes,6,04.11.2017,28.01.1994,15,10,6,3,3,4,56,339,175,153,3,7,2,5,1,3,0,3,4,1,2,3,COUNTY (SHERIFF),357,0.98,2359,20,41.975308,-91.670108
40.438962,-99.37062,26,0,,715 5TH AVENUE HOLDREGE NE 68949,PHELPNE,PHELPS COUNTY JAIL,715 5TH AVENUE,HOLDREGE,PHELPS,NE,68949,8,SPM,OMA,USMS IGA,USMS IGA,Yes,8,04.11.2017,29.02.2000,8,6,5,3,3,9,6,45,17,27,2,4,0,4,0,3,0,3,2,1,2,2,COUNTY (SHERIFF),372,1.02,1785,10,40.438962,-99.37062
NA,NA,26,0,,Redacted Redacted Redacted Redacted,Redacted,Redacted,Redacted,Redacted,Redacted,Redacted,Redacted,6,DET,DET,ORR,ORR,No,14,04.11.2017,06.11.1993,14,14,8,4,0,0,14,16,23,82,14,0,8,0,4,0,0,0,0,0,0,14,ORR,372,1.02,2825,15,NA,NA
NA,NA,26,0,,Redacted Redacted Redacted Redacted,Redacted,Redacted,Redacted,Redacted,Redacted,Redacted,Redacted,7,CHI,CHI,ORR,ORR,No,0,08.11.2016,24.12.2013,0,0,0,2,10,14,0,1,14,81,0,0,0,0,2,0,10,0,0,0,0,0,,28,0.08,28,1,NA,NA
NA,NA,26,0,,Redacted Redacted Redacted Redacted,Redacted,Redacted,Redacted,Redacted,Redacted,Redacted,Redacted,9,PHO,PHO,ORR,ORR,No,0,26.02.2017,09.04.2010,0,0,4,7,6,9,1,13,74,39,0,0,4,0,7,0,6,0,0,0,0,0,,149,0.41,1313,13,NA,NA
NA,NA,26,0,,Redacted Redacted Redacted Redacted,Redacted,Redacted,Redacted,Redacted,Redacted,Redacted,Redacted,9,PHO,PHO,ORR,ORR,No,0,14.03.2017,10.06.2011,0,0,4,9,5,8,0,13,41,15,0,0,3,0,8,1,4,1,0,0,0,0,,165,0.45,1333,10,NA,NA
38.313321,-81.711221,25,0,,1001 CENTRE WAY CHARLESTON WV 25309,WVSCENT,SOUTH CENTRAL REGIONAL JAIL,1001 CENTRE WAY,CHARLESTON,KANAWHA,WV,25309,4,PHI,CHS,USMS IGA,USMS IGA,Yes,5,04.11.2017,30.08.2004,14,7,6,6,3,3,53,373,367,329,3,4,2,4,1,5,0,3,3,1,1,3,COUNTY (CORRECTIONS),364,1,2218,25,38.313321,-81.711221
26.2002,-97.71681,25,0,,1717 ZOY STREET HARLINGEN TX 78550,HLGHOLD,HARLINGEN HOLD ROOM,1717 ZOY STREET,HARLINGEN,CAMERON,TX,78550,5,SNA,HLG,Other,HOLD,Yes,0,30.10.2017,15.05.2008,1,0,1,4,2,18,144,3557,12603,32167,0,0,1,0,4,0,2,0,0,0,0,0,,148,0.41,296,5,26.2002,-97.71681
35.776075,-78.640376,25,0,,330 SOUTH SALISBURY STREET RALEIGH NC 27601,WAKECNC,WAKE COUNTY SHERIFF DEPARTMENT,330 SOUTH SALISBURY STREET,RALEIGH,WAKE,NC,27601,4,ATL,RDU,IGSA,IGSA,Yes,8,04.11.2017,23.09.2008,20,9,7,3,3,3,309,1424,711,599,2,7,1,5,0,3,0,2,2,2,2,2,COUNTY (SHERIFF),358,0.98,2483,19,35.776075,-78.640376
35.158037,-117.86201,24,0,,22844 VIRGINIA BOULEVARD CALIFORNIA CITY CA 93505,CACTYCA,CALIFORNIA CITY CORRECTIONAL CENTER,22844 VIRGINIA BOULEVARD,CALIFORNIA CITY,KERN,CA,93505,9,SFR,BKI,USMS IGA,USMS IGA,Yes,0,28.11.2013,07.03.2011,0,0,0,0,0,24,0,0,0,0,0,0,0,0,0,0,0,0,0,0,0,0,CCA,0,0,0,0,35.158037,-117.86201
NA,NA,24,0,,Redacted Redacted Redacted Redacted,Redacted,Redacted,Redacted,Redacted,Redacted,Redacted,Redacted,5,SNA,,ORR,ORR,No,0,08.03.2016,11.12.2015,0,0,0,24,0,0,0,0,399,0,0,0,0,0,24,0,0,0,0,0,0,0,,0,0,0,0,NA,NA
38.943,-105.151,23,38.943,,288 WEAVERVILLE ROAD DIVIDE CO 80814,TELLECO,TELLER COUNTY JAIL,288 WEAVERVILLE ROAD,DIVIDE,TELLER,CO,80814,10,DEN,DEN,IGSA,IGSA,Yes,0,01.08.2017,07.10.1998,0,0,0,10,4,9,0,7,232,76,0,0,0,0,7,3,4,0,0,0,0,0,COUNTY (SHERIFF),38,0.1,127,12,38.942379,-105.153965
NA,NA,23,0,,Redacted Redacted Redacted Redacted,Redacted,Redacted,Redacted,Redacted,Redacted,Redacted,Redacted,7,CHI,,ORR,ORR,No,24,04.11.2017,07.07.2017,24,21,2,0,0,0,27,31,0,0,21,0,2,0,0,0,0,0,0,0,0,21,,93,0.25,758,23,NA,NA
41.4053,-81.498,22,41.4053,,5661 PERKINS ROAD BEDFORD HTS OH 44146,BEDFOOH,BEDFORD HEIGHTS CITY JAIL,5661 PERKINS ROAD,BEDFORD HTS,CUYAHOGA,OH,44146,6,DET,CLE,IGSA,IGSA,Yes,0,27.04.2015,31.12.1996,0,0,0,0,0,22,0,0,0,36,0,0,0,0,0,0,0,0,0,0,0,0,CITY,0,0,0,0,41.405083,-81.498566
NA,NA,22,0,,Redacted Redacted Redacted Redacted,Redacted,Redacted,Redacted,Redacted,Redacted,Redacted,Redacted,9,PHO,PHO,ORR,ORR,No,0,01.03.2017,05.06.2004,0,0,3,7,5,7,1,27,52,27,0,0,3,0,7,0,5,0,0,0,0,0,ORR,152,0.42,1208,11,NA,NA
32.992938,-117.162631,22,0,,US INS DETENTION & DEPORTATION SAN DIEGO CA 92101,SNDHOLD,SAN DIEGO DISTRICT STAGING,US INS DETENTION & DEPORTATION,SAN DIEGO,SAN DIEGO,CA,92101,9,SND,SND,Other,HOLD,Yes,1,04.11.2017,28.02.1986,12,4,6,4,4,4,2254,21327,29839,19181,3,2,5,1,3,1,4,0,1,0,1,3,FEDERAL,372,1.02,2213,40,32.992938,-117.162631
NA,NA,21,0,,Redacted Redacted Redacted Redacted,Redacted,Redacted,Redacted,Redacted,Redacted,Redacted,Redacted,11,MIA,MIA,ORR,ORR,No,0,06.11.2016,22.03.2004,0,0,0,1,10,10,0,0,0,15,0,0,0,0,1,0,10,0,0,0,0,0,HOSPITAL,37,0.1,37,1,NA,NA
NA,NA,21,0,,Redacted Redacted Redacted Redacted,Redacted,Redacted,Redacted,Redacted,Redacted,Redacted,Redacted,3,PHI,PIT,ORR,ORR,No,21,04.11.2017,17.09.2014,21,15,4,0,2,0,14,30,0,28,15,0,4,0,0,0,2,0,0,0,0,15,,93,0.25,1294,19,NA,NA
42.2546,-79.5036,20,42.2546,,15 E. CHAUTAUQUA STREET MAYVILLE NY 14757,CHACONY,CHAUTAUQUA COUNTY JAIL,15 E. CHAUTAUQUA STREET,MAYVILLE,CHAUTAUQUA,NY,14757,2,BUF,BUF,IGSA,IGSA,Yes,2,04.11.2017,29.10.1987,6,4,4,5,2,5,6,43,42,28,3,1,2,2,3,2,1,1,1,0,0,3,COUNTY (SHERIFF),345,0.95,1494,12,42.255105,-79.50367
37.114037,-113.43523,20,0,,750 SOUTH 5400 WEST HURRICANE UT 84737,WASHCUT,WASHINGTON COUNTY JAIL (PURGATORY CORRECTIONAL FAC,750 SOUTH 5400 WEST,HURRICANE,WASHINGTON,UT,84737,10,SLC,SGU,USMS IGA,USMS IGA,Yes,5,04.11.2017,12.02.2002,7,4,5,3,4,4,24,150,80,78,0,3,0,5,0,3,0,3,1,2,1,0,COUNTY (SHERIFF),371,1.02,1962,20,37.114037,-113.43523
NA,NA,19,0,,Redacted Redacted Redacted Redacted,Redacted,Redacted,Redacted,Redacted,Redacted,Redacted,Redacted,5,HOU,HOU,ORR,ORR,No,8,04.11.2017,13.07.2005,8,8,4,2,4,1,8,10,3,6,8,0,4,0,2,0,4,0,0,0,0,8,ORR,372,1.02,1564,8,NA,NA
NA,NA,19,0,,Redacted Redacted Redacted Redacted,Redacted,Redacted,Redacted,Redacted,Redacted,Redacted,Redacted,9,SEA,POO,ORR,ORR,No,0,15.09.2015,04.06.2013,0,0,0,0,12,7,0,0,0,51,0,0,0,0,0,0,12,0,0,0,0,0,,0,0,0,0,NA,NA
43.673343,-111.911745,18,0,,219 EAST FREMONT AVE RIGBY ID 83442,JEFFEID,JEFFERSON COUNTY JAIL,219 EAST FREMONT AVE,RIGBY,JEFFERSON,ID,83442,9,SLC,BOI,IGSA,IGSA,Yes,13,04.11.2017,29.03.2000,17,8,5,1,2,2,51,220,79,101,3,5,2,3,0,1,0,1,2,2,1,3,COUNTY,337,0.92,1770,18,43.673343,-111.911745
25.706054,-80.29242,18,0,,6129 SW 70TH ST SOUTH MIAMI FL 33143,LRKNHFL,LARKIN HOSPITAL,6129 SW 70TH ST,SOUTH MIAMI,MIAMI-DADE,FL,33143,11,MIA,KRO,Other,HOSPITAL,No,2,04.11.2017,18.03.2009,6,2,4,1,3,8,47,99,36,14,0,2,1,3,0,1,0,3,2,0,0,0,HOSPITAL,341,0.93,1293,10,25.706054,-80.29242
NA,NA,18,0,,Redacted Redacted Redacted Redacted,Redacted,Redacted,Redacted,Redacted,Redacted,Redacted,Redacted,3,PHI,PHI,ORR,ORR,No,6,04.11.2017,06.03.2014,6,6,5,3,3,1,4,4,5,2,6,0,5,0,3,0,3,0,0,0,0,6,,372,1.02,1970,6,NA,NA
NA,NA,18,0,,Redacted Redacted Redacted Redacted,Redacted,Redacted,Redacted,Redacted,Redacted,Redacted,Redacted,9,PHO,PHO,ORR,ORR,No,0,23.05.2017,14.08.2014,0,0,0,0,16,2,0,1,0,185,0,0,0,0,0,0,16,0,0,0,0,0,,47,0.13,47,1,NA,NA
42.535299,-113.791845,17,0,,1415 ALBION AVENUE BURLEY ID 83318,MINICID,MINICASSIA DETENTION CENTER,1415 ALBION AVENUE,BURLEY,CASSIA,ID,83318,9,SLC,BOI,IGSA,IGSA,Yes,3,04.11.2017,05.01.1992,12,6,3,3,2,3,47,273,366,392,0,5,0,3,0,3,0,2,2,2,1,0,COUNTY (SHERIFF),329,0.9,1136,10,42.535299,-113.791845
NA,NA,17,0,,Redacted Redacted Redacted Redacted,Redacted,Redacted,Redacted,Redacted,Redacted,Redacted,Redacted,2,NYC,,ORR,ORR,No,4,04.11.2017,23.03.2015,8,6,6,5,0,0,8,37,39,4,6,0,6,0,5,0,0,0,0,0,0,6,,359,0.98,2368,14,NA,NA
42.800302,-77.816286,16,0,,4 COURT STREET GENESEO NY 14454,LIVINNY,LIVINGSTON COUNTY JAIL,4 COURT STREET,GENESEO,LIVINGSTON,NY,14454,2,BUF,BUF,USMS IGA,USMS IGA,Yes,10,04.11.2017,22.11.1996,14,12,4,0,0,0,12,49,0,0,8,4,3,1,0,0,0,0,2,1,1,8,COUNTY (SHERIFF),172,0.47,1487,14,42.800302,-77.816286
NA,NA,16,0,,Redacted Redacted Redacted Redacted,Redacted,Redacted,Redacted,Redacted,Redacted,Redacted,Redacted,5,DAL,,ORR,ORR,No,0,22.02.2016,11.12.2015,0,0,0,16,0,0,0,0,493,0,0,0,0,0,16,0,0,0,0,0,0,0,,0,0,0,0,NA,NA
42.314031,-83.202528,15,0,,16099 MICHIGAN AVE DEARBORN MI 48126,DEAPDMI,DEARBORN POLICE DEPARTMENT,16099 MICHIGAN AVE,DEARBORN,WAYNE,MI,48126,6,DET,DET,IGSA,IGSA,Yes,4,04.11.2017,19.03.1991,9,5,3,2,2,3,144,1135,618,576,3,2,2,1,1,1,1,1,0,1,0,3,CITY,325,0.89,1255,14,42.314031,-83.202528
NA,NA,15,0,,Redacted Redacted Redacted Redacted,Redacted,Redacted,Redacted,Redacted,Redacted,Redacted,Redacted,3,NEW,,ORR,ORR,No,12,04.11.2017,29.08.2017,15,14,1,0,0,0,15,15,0,0,14,0,1,0,0,0,0,0,0,0,0,14,,40,0.11,302,15,NA,NA
NA,NA,15,0,,Redacted Redacted Redacted Redacted,Redacted,Redacted,Redacted,Redacted,Redacted,Redacted,Redacted,11,MIA,MIA,ORR,ORR,No,0,01.03.2017,19.09.2014,0,0,0,0,15,0,0,5,0,175,0,0,0,0,0,0,15,0,0,0,0,0,,3,0.01,3,1,NA,NA
33.899167,-84.574089,14,0,,1825 COUNTY SERVICES PARKWAY MARIETTA GA 30060,COBBJGA,COBB COUNTY JAIL,1825 COUNTY SERVICES PARKWAY,MARIETTA,COBB,GA,30060,11,ATL,ATL,IGSA,IGSA,Yes,0,04.11.2017,15.02.2005,15,7,4,1,1,1,140,564,117,141,2,5,1,3,0,1,0,1,1,3,1,2,COUNTY (SHERIFF),311,0.85,1490,16,33.899167,-84.574089
NA,NA,14,0,,Redacted Redacted Redacted Redacted,Redacted,Redacted,Redacted,Redacted,Redacted,Redacted,Redacted,7,CHI,CHI,ORR,ORR,No,1,04.11.2017,25.03.2014,2,1,0,2,3,8,2,2,1,32,1,0,0,0,2,0,3,0,0,0,0,1,,25,0.07,36,2,NA,NA
NA,NA,14,0,,Redacted Redacted Redacted Redacted,Redacted,Redacted,Redacted,Redacted,Redacted,Redacted,Redacted,11,MIA,MIA,ORR,ORR,No,0,17.09.2015,22.08.2014,0,0,0,0,13,1,0,0,0,142,0,0,0,0,0,0,13,0,0,0,0,0,,0,0,0,0,NA,NA
NA,NA,14,0,,Redacted Redacted Redacted Redacted,Redacted,Redacted,Redacted,Redacted,Redacted,Redacted,Redacted,10,CHI,,ORR,ORR,No,4,04.11.2017,17.07.2017,17,11,3,0,0,0,19,39,0,0,11,0,3,0,0,0,0,0,0,0,0,11,,83,0.23,1151,27,NA,NA
33.397131,-111.787678,14,0,,UNAVAILABLE MESA AZ 85204,IWAHOLD,AZ REM OP COORD CENTER (AROCC),UNAVAILABLE,MESA,MARICOPA,AZ,85204,9,PHO,FLO,Other,HOLD,Yes,0,31.10.2017,24.01.2010,66,5,5,4,0,0,38,4952,3843,1604,3,3,3,2,2,2,0,0,1,1,2,3,,132,0.36,1839,84,33.397131,-111.787678
42.124846,-80.065922,13,0,,1618 ASH STREET ERIE PA 16503,ERICOPA,ERIE COUNTY JAIL,1618 ASH STREET,ERIE,ERIE,PA,16503,3,PHI,PIT,USMS IGA,USMS IGA,Yes,2,04.11.2017,17.10.1995,3,2,3,3,4,1,16,114,122,191,0,1,1,1,0,2,1,3,0,1,1,0,COUNTY (CORRECTIONS),272,0.75,931,29,42.124846,-80.065922
42.438415,-123.31303,13,0,,1901 NORTHEAST F STREET GRANTS PASS OR 97526,JOSEPOR,JOSEPHINE COUNTY JAIL,1901 NORTHEAST F STREET,GRANTS PASS,JOSEPHINE,OR,97526,9,SEA,MED,USMS IGA,USMS IGA,Yes,0,31.10.2017,19.12.1995,6,2,2,1,1,7,25,111,62,86,0,2,0,2,0,1,0,1,0,1,0,0,COUNTY (SHERIFF),290,0.79,667,10,42.438415,-123.31303
28.503803,-81.417343,13,0,,3855 SOUTH JOHN YOUNG PARKWAY ORLANDO FL 32839,ORANGFL,ORANGE COUNTY JAIL,3855 SOUTH JOHN YOUNG PARKWAY,ORLANDO,ORANGE,FL,32839,11,MIA,ORL,USMS IGA,USMS IGA,Yes,1,04.11.2017,05.02.1996,24,9,2,1,1,0,166,403,158,169,3,6,1,1,0,0,0,0,3,2,1,3,COUNTY,232,0.64,593,22,28.503803,-81.417343
32.777405,-96.811278,12,0,,111 WEST COMMERCE STREET DALLAS TX 75202,DALCOTX,DALLAS COUNTY JAIL - LEW STERRETT JUSTICE CENTER,111 WEST COMMERCE STREET,DALLAS,DALLAS,TX,75202,5,DAL,DAL,USMS IGA,USMS IGA,Yes,0,04.11.2017,07.05.1990,22,9,3,0,0,0,199,1229,0,0,3,5,1,2,0,0,0,0,1,2,3,3,COUNTY,161,0.44,1213,21,32.777405,-96.811278
30.884394,-87.774802,12,0,,200 HAND AVE. BAY MINETTE AL 36507,BALDWAL,BALDWIN COUNTY CORRECTIONAL CENTER,200 HAND AVE.,BAY MINETTE,BALDWIN,AL,36507,11,NOL,NOL,IGSA,IGSA,Yes,1,04.11.2017,20.04.2011,11,4,3,2,1,2,77,482,264,252,2,2,1,2,0,1,0,1,1,1,1,2,COUNTY (SHERIFF),312,0.85,1061,15,30.884394,-87.774802
36.923376,-89.351612,12,0,,200 WEST COMMERCIAL STREET CHARLESTON MO 63834,MISCOMO,MISSISSIPPI COUNTY DETENTION CENTER,200 WEST COMMERCIAL STREET,CHARLESTON,MISSISSIPPI,MO,63834,8,CHI,STL,IGSA,IGSA,Yes,0,25.03.2015,24.11.1999,0,0,0,0,3,9,0,0,0,23,0,0,0,0,0,0,1,2,0,0,0,0,COUNTY (SHERIFF),0,0,0,0,36.923376,-89.351612
40.728432,-74.005437,12,0,,201 VARICK STREET NEW YORK NY 10014,VRK,VARICK STREET DETENTION CENTER,201 VARICK STREET,NEW YORK,NEW YORK,NY,10014,2,NYC,VRK,Other,HOLD,Yes,1,02.11.2017,01.01.1983,12,3,2,1,3,3,1061,4765,2693,3240,2,2,1,1,0,1,1,1,1,0,0,2,,260,0.71,740,22,40.728432,-74.005437
35.314888,-82.456493,12,0,,375 1ST AVENUE EAST HENDERSONVILLE NC 28792,HENDENC,HENDERSON COUNTY DETENTION FACILITY,375 1ST AVENUE EAST,HENDERSONVILLE,HENDERSON,NC,28792,4,ATL,CLT,IGSA,IGSA,Yes,0,29.12.2014,19.09.2008,0,0,0,0,3,9,0,0,0,157,0,0,0,0,0,0,0,3,0,0,0,0,COUNTY (SHERIFF),0,0,0,0,35.314888,-82.456493
NA,NA,12,0,,Redacted Redacted Redacted Redacted,Redacted,Redacted,Redacted,Redacted,Redacted,Redacted,Redacted,9,SEA,SEA,ORR,ORR,No,0,25.09.2017,25.09.2005,0,0,0,1,5,6,1,1,2,6,0,0,0,0,0,0,4,1,0,0,0,0,ORR,5,0.01,5,1,NA,NA
45.146926,-95.015943,11,0,,2201 23RD ST NE WILLMAR MN 56201,KANDIMN,KANDIYOHI COUNTY JAIL,2201 23RD ST NE,WILLMAR,KANDIYOHI,MN,56201,8,SPM,SPM,IGSA,IGSA,Yes,18,04.11.2017,13.03.1992,18,11,0,0,0,0,0,0,0,0,2,9,0,0,0,0,0,0,9,0,0,2,COUNTY (SHERIFF),2,0.01,0,11,45.146926,-95.015943
NA,NA,11,0,,Redacted Redacted Redacted Redacted,Redacted,Redacted,Redacted,Redacted,Redacted,Redacted,Redacted,3,PHI,PHI,ORR,ORR,No,0,09.10.2016,19.06.2014,0,0,0,0,8,3,0,0,0,106,0,0,0,0,0,0,8,0,0,0,0,0,,9,0.02,9,1,NA,NA
NA,NA,11,0,,Redacted Redacted Redacted Redacted,Redacted,Redacted,Redacted,Redacted,Redacted,Redacted,Redacted,5,HOU,,ORR,ORR,No,0,12.02.2017,18.12.2015,0,0,0,11,0,0,0,4,250,0,0,0,0,0,11,0,0,0,0,0,0,0,,1,0,1,1,NA,NA
NA,NA,11,0,,Redacted Redacted Redacted Redacted,Redacted,Redacted,Redacted,Redacted,Redacted,Redacted,Redacted,5,DAL,,ORR,ORR,No,0,16.01.2016,12.12.2015,0,0,0,11,0,0,0,0,183,0,0,0,0,0,11,0,0,0,0,0,0,0,,0,0,0,0,NA,NA
NA,NA,11,0,,Redacted Redacted Redacted Redacted,Redacted,Redacted,Redacted,Redacted,Redacted,Redacted,Redacted,2,NYC,VRK,ORR,ORR,No,4,04.11.2017,30.04.2014,12,7,2,2,0,0,12,18,11,4,7,0,2,0,2,0,0,0,0,0,0,7,,263,0.72,751,12,NA,NA
NA,NA,11,0,,Redacted Redacted Redacted Redacted,Redacted,Redacted,Redacted,Redacted,Redacted,Redacted,Redacted,2,BOS,HAR,ORR,ORR,No,2,04.11.2017,24.07.2014,4,3,3,0,4,1,5,19,0,18,3,0,3,0,0,0,4,0,0,0,0,3,,184,0.5,913,8,NA,NA
34.239761,-83.812894,10,0,,1700 BARBER ROAD GAINESVILLE GA 30507,HALLJGA,HALL COUNTY JAIL,1700 BARBER ROAD,GAINESVILLE,HALL,GA,30507,11,ATL,ATL,USMS IGA,USMS IGA,Yes,1,04.11.2017,27.06.1995,7,2,3,2,1,2,96,424,161,167,0,2,1,2,0,2,0,1,1,0,1,0,COUNTY (SHERIFF),288,0.79,938,12,34.239761,-83.812894
46.618026,-120.557401,10,0,,3701 RIVER ROAD YAKIMA WA 98902,YAKHOLD,YAKIMA HOLDING ROOM,3701 RIVER ROAD,YAKIMA,YAKIMA,WA,98902,9,SEA,YAK,Other,HOLD,Yes,18,04.11.2017,17.06.2010,18,3,1,3,1,2,406,1419,753,590,1,3,0,1,1,2,0,0,1,1,0,1,,372,1.02,543,5,46.618026,-120.557401
35.314926,-80.841085,10,0,,5234 SPECTOR DRIVE CHARLOTTE NC 28202,MECKLNC,MECKLENBURG COUNTY DETENTION CENTER NORTH,5234 SPECTOR DRIVE,CHARLOTTE,MECKLENBURG,NC,28202,4,ATL,CLT,USMS IGA,USMS IGA,Yes,5,04.11.2017,15.03.1988,12,4,2,1,1,2,144,571,334,291,2,1,1,1,1,1,0,1,1,0,0,2,COUNTY (SHERIFF),301,0.82,803,16,35.314926,-80.841085
40.629134,-80.239164,10,0,,6000 WOODLAWN BOULEVARD ALIQUIPPA PA 15001,BEAVRPA,BEAVER COUNTY JAIL,6000 WOODLAWN BOULEVARD,ALIQUIPPA,BEAVER,PA,15001,3,PHI,PIT,USMS IGA,USMS IGA,Yes,6,04.11.2017,28.08.2017,17,9,1,0,0,0,40,45,0,0,3,6,0,0,0,0,0,0,3,1,2,3,COUNTY (SHERIFF),39,0.11,187,16,40.629134,-80.239164
42.860765,-77.922265,10,0,,"651 FEDERAL DRIVE, SUITE 104 GUAYNABO PR 965",SJS,SAN JUAN STAGING,"651 FEDERAL DRIVE, SUITE 104",GUAYNABO,GUAYNABO,PR,965,1,MIA,MIA,Other,STAGING,Yes,0,17.09.2017,30.09.2013,0,0,1,2,2,5,58,516,628,637,0,0,1,0,2,1,2,1,0,0,0,0,,195,0.53,544,17,42.860765,-77.922265
NA,NA,10,0,,Redacted Redacted Redacted Redacted,Redacted,Redacted,Redacted,Redacted,Redacted,Redacted,Redacted,9,LOS,,ORR,ORR,No,9,04.11.2017,28.06.2017,9,8,2,0,0,0,7,10,0,0,8,0,2,0,0,0,0,0,0,0,0,8,,102,0.28,708,9,NA,NA
NA,NA,10,0,,Redacted Redacted Redacted Redacted,Redacted,Redacted,Redacted,Redacted,Redacted,Redacted,Redacted,11,MIA,MIA,ORR,ORR,No,0,17.09.2015,19.09.2014,0,0,0,0,10,0,0,0,0,134,0,0,0,0,0,0,10,0,0,0,0,0,,0,0,0,0,NA,NA
40.192202,-75.914124,9,0,,1000 ACADEMY DRIVE MORGANTOWN PA 19543,ABRXSPA,ABRAXAS ACADEMY DETENTION CENTER,1000 ACADEMY DRIVE,MORGANTOWN,BERKS,PA,19543,3,PHI,BRK,IGSA,JUVENILE,Yes,2,04.11.2017,23.05.2014,2,2,3,4,0,0,2,7,10,3,1,1,2,2,2,2,0,0,1,0,0,1,,372,1.02,1207,5,40.192202,-75.914124
26.17454,-97.671642,9,0,,2101 PEASE ST HARLINGEN TX 78550,VBHOSTX,VALLEY BAPTIST HOSPITAL,2101 PEASE ST,HARLINGEN,CAMERON,TX,78550,5,SNA,PIC,Other,HOSPITAL,No,2,04.11.2017,05.03.1997,4,2,1,2,2,2,15,81,88,87,1,1,1,1,1,1,1,1,1,0,0,1,HOSPITAL,264,0.72,503,8,26.17454,-97.671642
45.569644,-122.656146,9,0,,50 COUNTY WAY PORTLAND ME 4102,CUMBEME,CUMBERLAND COUNTY JAIL,50 COUNTY WAY,PORTLAND,CUMBERLAND,ME,4102,1,BOS,POM,USMS IGA,USMS IGA,Yes,5,04.11.2017,26.05.1993,6,3,3,1,1,1,32,96,35,48,2,1,1,2,0,0,0,0,0,0,0,2,COUNTY (SHERIFF),351,0.96,1159,12,45.569644,-122.656146
33.979416,-81.249212,9,0,,521 GIBSON ROAD LEXINGTON SC 29072,LEXINSC,LEXINGTON COUNTY JAIL,521 GIBSON ROAD,LEXINGTON,LEXINGTON,SC,29072,4,ATL,CHL,USMS IGA,USMS IGA,Yes,0,01.11.2017,07.12.2010,7,1,2,2,2,2,87,456,409,406,0,1,0,2,0,2,0,2,0,0,0,0,COUNTY (SHERIFF),237,0.65,722,12,33.979416,-81.249212
32.774403,-117.044583,9,0,,7050 PARKWAY DR LA MESA CA 91942,APIBHCA,ALVARADO PARKWAY INSTITUTE,7050 PARKWAY DR,LA MESA,SAN DIEGO,CA,91942,9,SND,SND,Other,HOSPITAL,No,4,04.11.2017,27.02.2015,6,3,4,2,0,0,79,150,62,2,0,3,1,2,0,2,0,0,3,0,0,0,,366,1,1346,13,32.774403,-117.044583
35.380213,-94.412793,9,0,,801 SOUTH A STREET FORT SMITH AR 72901,SEBASAR,SEBASTIAN COUNTY DETENTION CENTER,801 SOUTH A STREET,FORT SMITH,SEBASTIAN,AR,72901,8,NOL,FSA,USMS IGA,USMS IGA,Yes,3,04.11.2017,07.01.1998,8,3,2,1,1,2,84,329,180,220,1,2,1,2,0,1,0,1,1,0,1,1,COUNTY (SHERIFF),260,0.71,791,12,35.380213,-94.412793
34.792984,-84.984353,9,0,,805 PROFESSIONAL BLVD DALTON GA 30720,WHITFGA,WHITFIELD COUNTY JAIL,805 PROFESSIONAL BLVD,DALTON,WHITFIELD,GA,30720,11,ATL,ATL,IGSA,IGSA,Yes,0,02.11.2017,18.09.2010,8,3,2,1,1,2,69,332,205,136,1,1,1,1,0,1,0,1,0,0,1,1,COUNTY (SHERIFF),247,0.68,683,12,34.792984,-84.984353
35.118718,-101.866022,9,0,,9100 SOUTH GEORGIA STREET AMARILLO TX 79118,RNDLLTX,RANDALL COUNTY JAIL,9100 SOUTH GEORGIA STREET,AMARILLO,RANDALL,TX,79118,5,DAL,AMT,USMS IGA,USMS IGA,Yes,1,04.11.2017,01.05.2007,11,3,2,1,2,1,36,415,236,313,1,2,1,1,0,1,1,1,1,0,1,1,COUNTY (SHERIFF),249,0.68,767,22,35.118718,-101.866022
NA,NA,9,0,,Redacted Redacted Redacted Redacted,Redacted,Redacted,Redacted,Redacted,Redacted,Redacted,Redacted,11,MIA,MIA,ORR,ORR,No,0,15.09.2015,13.06.2014,0,0,0,0,8,1,0,0,0,168,0,0,0,0,0,0,8,0,0,0,0,0,,0,0,0,0,NA,NA
NA,NA,9,0,,Redacted Redacted Redacted Redacted,Redacted,Redacted,Redacted,Redacted,Redacted,Redacted,Redacted,2,NYC,VRK,ORR,ORR,No,0,27.09.2015,04.09.2014,0,0,0,0,9,0,0,0,0,114,0,0,0,0,0,0,9,0,0,0,0,0,,0,0,0,0,NA,NA
